[{"site_name":"Jelas field including fishponds and wet pastures along Sava RIver","id":3597,"lat":45.138,"lon":17.836,"site_type":"csn"},{"site_name":"Donji Miholjac fish-ponds","id":3614,"lat":45.75,"lon":18.2,"site_type":"csn"},{"site_name":"Lower Sava river","id":3595,"lat":45.342,"lon":16.868,"site_type":"csn"},{"site_name":"Alluvial wetlands of the River Drava","id":3610,"lat":45.917,"lon":17.25,"site_type":"csn"},{"site_name":"Alluvial wetlands of the River Danube","id":3611,"lat":45.667,"lon":18.833,"site_type":"csn"},{"site_name":"Cetina","id":3607,"lat":43.868,"lon":16.618,"site_type":"csn"},{"site_name":"Neretve delta","id":3609,"lat":43.336,"lon":17.057,"site_type":"csn"},{"site_name":"Pokupski pool","id":3593,"lat":45.585,"lon":15.673,"site_type":"csn"},{"site_name":"Lake Vransko","id":3606,"lat":44.069,"lon":15.489,"site_type":"csn"},{"site_name":"Danube River","id":50770,"lat":45.301,"lon":19.056,"site_type":"csn"},{"site_name":"Dudypta river plains, Taimyr Peninsula","id":50089,"lat":71.19,"lon":92.12,"site_type":"csn"},{"site_name":"Birsuat","id":18888,"lat":52.167,"lon":60.35,"site_type":"csn"},{"site_name":"Kaban'i lakes","id":18659,"lat":55.8,"lon":69.217,"site_type":"csn"},{"site_name":"Lake Complex on the Left Bank of the Pur River","id":50108,"lat":65.08,"lon":77.06,"site_type":"csn"},{"site_name":"Sondugski Reserve and its outskirts","id":12516,"lat":60.1,"lon":42.133,"site_type":"csn"},{"site_name":"Bol'shoye Beloe lake","id":18657,"lat":55.783,"lon":67.9,"site_type":"csn"},{"site_name":"Ivan-Karaul island","id":1530,"lat":45.167,"lon":48,"site_type":"csn"},{"site_name":"Kurmyshskaya flood-land","id":20023,"lat":55.8,"lon":45.917,"site_type":"csn"},{"site_name":"Vorono-Khoperski area","id":1477,"lat":51.667,"lon":42.583,"site_type":"csn"},{"site_name":"Korovinskaya Bay, Pechora Delta-Barents Sea","id":50105,"lat":68.23,"lon":54.16,"site_type":"csn"},{"site_name":"Dedinovo flood-plain of Oka river","id":1631,"lat":55.167,"lon":39.3,"site_type":"csn"},{"site_name":"Lebedinoye and Svetloye lakes","id":18609,"lat":52.3,"lon":85.683,"site_type":"csn"},{"site_name":"Berezovye islands of Vyborg Bay","id":1526,"lat":60.3,"lon":29,"site_type":"csn"},{"site_name":"Schuch'ye lake","id":24263,"lat":55.633,"lon":67.5,"site_type":"csn"},{"site_name":"Bol'shoy Sarykul' lake","id":18654,"lat":54.7,"lon":61.367,"site_type":"csn"},{"site_name":"Siverga lake","id":18658,"lat":55.417,"lon":68.767,"site_type":"csn"},{"site_name":"Surski spur of Cheboksarskoye reservoir","id":20017,"lat":56.117,"lon":45.933,"site_type":"csn"},{"site_name":"Central Forest Biosphere Reserve and adjacent areas","id":1506,"lat":56.55,"lon":32.75,"site_type":"csn"},{"site_name":"Varfolomeyevskiye saltmarshes","id":1460,"lat":50,"lon":48.2,"site_type":"csn"},{"site_name":"Mouth of Yeya river","id":1618,"lat":46.667,"lon":38.75,"site_type":"csn"},{"site_name":"Lakes of northern Karelia","id":1521,"lat":66,"lon":33,"site_type":"csn"},{"site_name":"Volochanka river basin, Taimyr Peninsula","id":50134,"lat":70.5,"lon":93.4,"site_type":"csn"},{"site_name":"Dadynskiye lakes","id":1607,"lat":45.25,"lon":45.1,"site_type":"csn"},{"site_name":"Kuznetski Alatau","id":18841,"lat":54.55,"lon":88.433,"site_type":"csn"},{"site_name":"Flood-plain of Oka river in Navashinski district","id":20024,"lat":55.6,"lon":42.183,"site_type":"csn"},{"site_name":"Tsninski Forest","id":1568,"lat":53,"lon":41.75,"site_type":"csn"},{"site_name":"Russki Zavorot Peninsula and eastern part of Malozemelskaya Tundra","id":1512,"lat":68.583,"lon":53.5,"site_type":"csn"},{"site_name":"Gusikha river basin and lower Balakhnya river","id":16519,"lat":74.617,"lon":107.767,"site_type":"csn"},{"site_name":"Budary lakes","id":1493,"lat":43.5,"lon":46.067,"site_type":"csn"},{"site_name":"Kozinka lake and Baranikovski segment of Manych","id":23441,"lat":46.567,"lon":42,"site_type":"csn"},{"site_name":"Homeland of the Crane (Dubna marshes and adjacent areas)","id":1535,"lat":56.7,"lon":38.033,"site_type":"csn"},{"site_name":"Karakol'skiye lakes","id":1435,"lat":46.267,"lon":46.8,"site_type":"csn"},{"site_name":"Nizhnekumskiye floods","id":22020,"lat":44.817,"lon":46.767,"site_type":"csn"},{"site_name":"Beglitskaya sand-spit","id":1437,"lat":47.1,"lon":38.567,"site_type":"csn"},{"site_name":"Shalimovskoye bog","id":13002,"lat":57.8,"lon":38.633,"site_type":"csn"},{"site_name":"Watershed lakes between Chaselka and Kharampur rivers","id":50135,"lat":64.16,"lon":78.31,"site_type":"csn"},{"site_name":"Ainov islands","id":1426,"lat":69.833,"lon":31.583,"site_type":"csn"},{"site_name":"Pechora Delta","id":50126,"lat":67.43,"lon":53.1,"site_type":"csn"},{"site_name":"Uzkaya Steppe","id":18788,"lat":51.517,"lon":80.267,"site_type":"csn"},{"site_name":"Floodplains of the Unzha river near Kologriv","id":25034,"lat":58.367,"lon":44.283,"site_type":"csn"},{"site_name":"Kolokolkova Bay, Malozemelskaya tundra","id":50099,"lat":68.22,"lon":52.28,"site_type":"csn"},{"site_name":"North-western subburbs of St.-Petersburg","id":12545,"lat":59.983,"lon":30.217,"site_type":"csn"},{"site_name":"Sarpinskaya lake-system","id":12520,"lat":47.5,"lon":45.25,"site_type":"csn"},{"site_name":"Makushinsky Zakaznik","id":18630,"lat":55.233,"lon":67.383,"site_type":"csn"},{"site_name":"Valley complex of Moksha and Oka rivers","id":1585,"lat":54.833,"lon":41.75,"site_type":"csn"},{"site_name":"Dolgy Reef and Bol'shoi Fiskar archipelagos","id":12547,"lat":60.417,"lon":27.833,"site_type":"csn"},{"site_name":"Kuplogonskaya","id":25057,"lat":56.4,"lon":47.167,"site_type":"csn"},{"site_name":"Agriculture lands of south and east of Novouzenski district","id":25026,"lat":50.583,"lon":48.333,"site_type":"csn"},{"site_name":"Forests, bogs and gathering of the Common Cranes near Voskresenskoye village","id":20012,"lat":56.883,"lon":45.767,"site_type":"csn"},{"site_name":"Suskanski Reserve","id":1619,"lat":53.75,"lon":49.25,"site_type":"csn"},{"site_name":"Arski fish-ponds","id":1552,"lat":56.083,"lon":49.833,"site_type":"csn"},{"site_name":"Lapland Biosphere Reserve","id":1519,"lat":67.917,"lon":32,"site_type":"csn"},{"site_name":"Inder'","id":18775,"lat":54.5,"lon":79.917,"site_type":"csn"},{"site_name":"Stakhovski marshes","id":1555,"lat":56.033,"lon":32.667,"site_type":"csn"},{"site_name":"Kurumbel'skaya steppe","id":18693,"lat":54.417,"lon":75.417,"site_type":"csn"},{"site_name":"Nefed'yevo area and Chistogay lake","id":18683,"lat":56.1,"lon":73.217,"site_type":"csn"},{"site_name":"Bottomland the river Tobol between a mouth of the rivers Uja and Ubagan","id":18634,"lat":54.333,"lon":64.25,"site_type":"csn"},{"site_name":"Ubinskoye Lake","id":18770,"lat":55.433,"lon":80.067,"site_type":"csn"},{"site_name":"Pestchanka River delta, Kolguev Island","id":50128,"lat":69.08,"lon":49.55,"site_type":"csn"},{"site_name":"Shabel'skaya sand-spit","id":18590,"lat":46.867,"lon":38.5,"site_type":"csn"},{"site_name":"Kizlyar Bay","id":1494,"lat":44.5,"lon":46.75,"site_type":"csn"},{"site_name":"Karakulinskaya flood-plain","id":18944,"lat":55.933,"lon":53.667,"site_type":"csn"},{"site_name":"Zolotarevskaya area","id":18930,"lat":49.767,"lon":46.45,"site_type":"csn"},{"site_name":"Izvestiy Tsik islands","id":16518,"lat":75.967,"lon":82.65,"site_type":"csn"},{"site_name":"Dyupkun Lake, Putorana Plateau","id":50090,"lat":67.05,"lon":93,"site_type":"csn"},{"site_name":"Agrakhanski Bay (North Agrakhan)","id":1492,"lat":43.733,"lon":47.5,"site_type":"csn"},{"site_name":"Chuburat Lake","id":18822,"lat":54.883,"lon":62.8,"site_type":"csn"},{"site_name":"Krasnodarskoye reservoir","id":22197,"lat":45.017,"lon":39.383,"site_type":"csn"},{"site_name":"Seketovo, Rakhtovo and Artevo lakes","id":20060,"lat":57.333,"lon":72.45,"site_type":"csn"},{"site_name":"Maly Zhemchuzhny island","id":1600,"lat":45,"lon":48.3,"site_type":"csn"},{"site_name":"Watershed between Sura and Barysh rivers","id":1499,"lat":54.533,"lon":46.867,"site_type":"csn"},{"site_name":"Oka valley in vicinity of Murmino","id":1589,"lat":54.583,"lon":40,"site_type":"csn"},{"site_name":"Kocherdyksky goose zakaznik","id":18652,"lat":54.467,"lon":63.067,"site_type":"csn"},{"site_name":"Achikol'skiye lakes","id":1438,"lat":43.8,"lon":47.25,"site_type":"csn"},{"site_name":"Terski coast","id":24911,"lat":66.583,"lon":40.75,"site_type":"csn"},{"site_name":"Guba Medvezja to Guba Porchnikha","id":50166,"lat":69.231,"lon":35.39,"site_type":"csn"},{"site_name":"Tirikul' and Kadkul' lakes","id":18669,"lat":55.583,"lon":62.25,"site_type":"csn"},{"site_name":"Vyborgski Bay","id":12553,"lat":60.667,"lon":28.667,"site_type":"csn"},{"site_name":"Taezhno-Mikhaylovsky","id":18829,"lat":56.417,"lon":87.617,"site_type":"csn"},{"site_name":"Salt lakes","id":13009,"lat":45.217,"lon":42.85,"site_type":"csn"},{"site_name":"Klyazminski reserve","id":12556,"lat":56.5,"lon":41.75,"site_type":"csn"},{"site_name":"Saltaim-Tenis lake","id":18699,"lat":56.117,"lon":71.85,"site_type":"csn"},{"site_name":"Desna flood-plain near Trubchevsk","id":1583,"lat":52.5,"lon":33.617,"site_type":"csn"},{"site_name":"Bol'shoy Pustoye lake","id":18640,"lat":55.117,"lon":63.067,"site_type":"csn"},{"site_name":"Volga Delta","id":1495,"lat":46,"lon":48.5,"site_type":"csn"},{"site_name":"Mordy-Yakha River basin, Yamal Peninsula","id":50123,"lat":70.18,"lon":68.11,"site_type":"csn"},{"site_name":"Khanskoye Lake","id":1574,"lat":46.5,"lon":38.417,"site_type":"csn"},{"site_name":"Islands in the western part of Lake Manych-Gudilo","id":1445,"lat":46.5,"lon":42.55,"site_type":"csn"},{"site_name":"Dunilovskoye bog","id":13004,"lat":57.767,"lon":38.867,"site_type":"csn"},{"site_name":"Uryadki Lake","id":18825,"lat":54.7,"lon":63.55,"site_type":"csn"},{"site_name":"Lake Ayke","id":13012,"lat":51.004,"lon":61.459,"site_type":"csn"},{"site_name":"Dvuob'ye","id":18712,"lat":65.2,"lon":65.15,"site_type":"csn"},{"site_name":"Ulukhkol' lake","id":16572,"lat":53.8,"lon":90.667,"site_type":"csn"},{"site_name":"Kandalaksha Bay, White Sea","id":50096,"lat":66.46,"lon":30.08,"site_type":"csn"},{"site_name":"Flood-plain of Yukhot' river","id":13003,"lat":57.733,"lon":38.55,"site_type":"csn"},{"site_name":"Gavrilovski archipelago","id":1448,"lat":69.167,"lon":36,"site_type":"csn"},{"site_name":"Baganskiye lakes","id":18779,"lat":54.167,"lon":78.267,"site_type":"csn"},{"site_name":"Varegovskoye bog","id":13001,"lat":57.717,"lon":39.217,"site_type":"csn"},{"site_name":"Kuktybiz Lake","id":18828,"lat":55.117,"lon":62.283,"site_type":"csn"},{"site_name":"Bulukhta area","id":12523,"lat":49.333,"lon":46.167,"site_type":"csn"},{"site_name":"Morkushskoye reservoir","id":12555,"lat":57.167,"lon":40.167,"site_type":"csn"},{"site_name":"Steppes in the vicinity of Kanavka village","id":25025,"lat":50.3,"lon":48.667,"site_type":"csn"},{"site_name":"Lake Travykul","id":18629,"lat":55.467,"lon":67.1,"site_type":"csn"},{"site_name":"Delta of the River Don","id":1436,"lat":47.167,"lon":39.417,"site_type":"csn"},{"site_name":"Issinski","id":12546,"lat":53.833,"lon":44.5,"site_type":"csn"},{"site_name":"Kondinskiye lakes","id":18813,"lat":60.9,"lon":63.583,"site_type":"csn"},{"site_name":"Krasniy Les area","id":22198,"lat":45.15,"lon":38.383,"site_type":"csn"},{"site_name":"Savtsinskoye marsh","id":1557,"lat":57.5,"lon":37.167,"site_type":"csn"},{"site_name":"Bulgarski","id":1554,"lat":55,"lon":49.167,"site_type":"csn"},{"site_name":"Guba Zelenetskaya-Guba Plokhie","id":50483,"lat":69.341,"lon":33.88,"site_type":"csn"},{"site_name":"Sokolino-Kasplyanskaya area","id":13017,"lat":55.083,"lon":31.7,"site_type":"csn"},{"site_name":"Yurtovskaya lakes system","id":50137,"lat":63.36,"lon":77.18,"site_type":"csn"},{"site_name":"Guba Medvezja to Guba Bolshie Chevry","id":50182,"lat":69.272,"lon":34.451,"site_type":"csn"},{"site_name":"Turalinskaya lagoon","id":12533,"lat":42.833,"lon":47.65,"site_type":"csn"},{"site_name":"Kissyk area","id":22009,"lat":43.733,"lon":46.067,"site_type":"csn"},{"site_name":"Chonta","id":22048,"lat":46.733,"lon":44.95,"site_type":"csn"},{"site_name":"Torna - Shoina watershed","id":1542,"lat":68,"lon":44.25,"site_type":"csn"},{"site_name":"Tyuleni island","id":24660,"lat":44.45,"lon":47.55,"site_type":"csn"},{"site_name":"Vaygach island","id":1510,"lat":70,"lon":59.5,"site_type":"csn"},{"site_name":"Nizhnekamskaya flood-plain","id":1612,"lat":56.75,"lon":53.833,"site_type":"csn"},{"site_name":"Salt lakes 'Manych'","id":22019,"lat":44.433,"lon":46.35,"site_type":"csn"},{"site_name":"Lower Eruslan","id":18923,"lat":50.3,"lon":46.416,"site_type":"csn"},{"site_name":"Flood-plain of rivers Usta and Vaya in Urenski district","id":20011,"lat":57.267,"lon":45.867,"site_type":"csn"},{"site_name":"Lake Systems of the Bolshaya Khadyr-Yakha River basin","id":50109,"lat":65.2,"lon":79.1,"site_type":"csn"},{"site_name":"Lake 'Southern Agrakhan'","id":22072,"lat":43.533,"lon":47.433,"site_type":"csn"},{"site_name":"Flood-plain of Iput' river in vicinity of Krutoayr","id":1580,"lat":53.167,"lon":32.633,"site_type":"csn"},{"site_name":"Kolguev island","id":24676,"lat":69.133,"lon":49.083,"site_type":"csn"},{"site_name":"Ptich'ye (Bird's) Lake","id":18598,"lat":45.583,"lon":41.75,"site_type":"csn"},{"site_name":"Nerussa - Desna woodland","id":1543,"lat":52.483,"lon":34.167,"site_type":"csn"},{"site_name":"Western Ilmen area","id":1484,"lat":46,"lon":47.5,"site_type":"csn"},{"site_name":"Lotoshino crane gathering","id":1464,"lat":56.3,"lon":35.5,"site_type":"csn"},{"site_name":"Upper streams of Ob' river","id":18717,"lat":61.733,"lon":65.15,"site_type":"csn"},{"site_name":"Southern part of Chograiski reservoir","id":13021,"lat":45.467,"lon":44.433,"site_type":"csn"},{"site_name":"Caspian Sea: Manas Sea-shore","id":50708,"lat":42.654,"lon":47.746,"site_type":"csn"},{"site_name":"Sviyago-Kubninskaya forest-steppe","id":13016,"lat":55.5,"lon":48.367,"site_type":"csn"},{"site_name":"Basins of the Schuchya and Khadytayakha rivers","id":18711,"lat":67.383,"lon":68.75,"site_type":"csn"},{"site_name":"Novokvasnikovski liman","id":1463,"lat":50.533,"lon":46.5,"site_type":"csn"},{"site_name":"Peat pits in Volodarski and Balakhninski districts","id":13010,"lat":56.383,"lon":43.45,"site_type":"csn"},{"site_name":"Kalininski Plavny","id":1617,"lat":45.417,"lon":38.5,"site_type":"csn"},{"site_name":"Blagoveschenskaya (Kulunda lake and vicinity)","id":18855,"lat":53,"lon":79.667,"site_type":"csn"},{"site_name":"Solotcha flood-plain of Oka river","id":1588,"lat":54.833,"lon":39.75,"site_type":"csn"},{"site_name":"Saltosarayskoye lake","id":24255,"lat":55.85,"lon":65.017,"site_type":"csn"},{"site_name":"Bogdinsko-Baskunchakski","id":1632,"lat":48.167,"lon":47,"site_type":"csn"},{"site_name":"Sulakskaya bay","id":22147,"lat":43.333,"lon":47.517,"site_type":"csn"},{"site_name":"Seskar island","id":12541,"lat":60.25,"lon":28.333,"site_type":"csn"},{"site_name":"Lower Leningradskaya river, Taimyr Peninsula","id":50119,"lat":76.17,"lon":102,"site_type":"csn"},{"site_name":"Kulaksay lowland","id":1474,"lat":50.733,"lon":55.833,"site_type":"csn"},{"site_name":"Kurtaily lake","id":18883,"lat":55.883,"lon":73.2,"site_type":"csn"},{"site_name":"Southern coast of the Neva bay","id":12544,"lat":59.917,"lon":29.833,"site_type":"csn"},{"site_name":"Butash and Gor'koye lakes","id":18848,"lat":54.583,"lon":62.1,"site_type":"csn"},{"site_name":"Stekleney Lake","id":18795,"lat":55.867,"lon":67.233,"site_type":"csn"},{"site_name":"Turali lakes","id":12528,"lat":42.833,"lon":47.667,"site_type":"csn"},{"site_name":"Khaypudyrskaya Bay (islands of B. Zelenets, Dolgi, Matveyev)","id":1428,"lat":68.917,"lon":59.833,"site_type":"csn"},{"site_name":"Kurtan Lake","id":18830,"lat":55.767,"lon":67.133,"site_type":"csn"},{"site_name":"Manturovo left bank of the Unzha river","id":25033,"lat":58.367,"lon":44.633,"site_type":"csn"},{"site_name":"Kurlady Lake","id":18823,"lat":55.083,"lon":61.7,"site_type":"csn"},{"site_name":"Yudinsky stretch","id":18771,"lat":54.817,"lon":77.067,"site_type":"csn"},{"site_name":"Rybinsk reservoir","id":1507,"lat":58.583,"lon":38,"site_type":"csn"},{"site_name":"Isle of Bely and Malygin Strait, Kara Sea","id":50094,"lat":73.05,"lon":70.28,"site_type":"csn"},{"site_name":"Tundrovo lake","id":18677,"lat":55.667,"lon":68.783,"site_type":"csn"},{"site_name":"Upper Mologa river (Verestovo lake)","id":1556,"lat":57.833,"lon":36.5,"site_type":"csn"},{"site_name":"Kargopol' area","id":1483,"lat":61.833,"lon":38.917,"site_type":"csn"},{"site_name":"Atyazh lakes","id":24254,"lat":56.417,"lon":63.383,"site_type":"csn"},{"site_name":"Bezymyannaya and Gribovaya Bays and adjoining waters","id":1481,"lat":72.917,"lon":53.083,"site_type":"csn"},{"site_name":"Bol'shoye Topol'noye lake","id":18616,"lat":53.333,"lon":78.05,"site_type":"csn"},{"site_name":"Common Crane premigratory aggregating area near village Russkoye Maklakovo","id":20022,"lat":55.767,"lon":45.483,"site_type":"csn"},{"site_name":"Moksha flood-plain in vicinity of Krasnoslobodsk","id":1605,"lat":54.383,"lon":43.833,"site_type":"csn"},{"site_name":"Caspian Sea: Djilgita Sea-shore","id":50644,"lat":45.075,"lon":47.145,"site_type":"csn"},{"site_name":"Caspian Sea: Kayakent Sea-shore","id":50654,"lat":42.4,"lon":48,"site_type":"csn"},{"site_name":"Shumerlinskaya","id":20027,"lat":55.417,"lon":46.033,"site_type":"csn"},{"site_name":"Surski reservoir","id":1564,"lat":53.033,"lon":45.283,"site_type":"csn"},{"site_name":"Curonian (Courish) Bay","id":12558,"lat":55.2,"lon":21.217,"site_type":"csn"},{"site_name":"Area between the Pura and Mokkoritto Rivers, Taimyr Peninsula","id":50086,"lat":72.3,"lon":88,"site_type":"csn"},{"site_name":"Lover Ob'","id":18784,"lat":66.667,"lon":68.833,"site_type":"csn"},{"site_name":"Onega Bay of the White Sea","id":1523,"lat":64.5,"lon":35.5,"site_type":"csn"},{"site_name":"Gorbita Delta, Taimyr Peninsula","id":50093,"lat":73,"lon":94.55,"site_type":"csn"},{"site_name":"Lower Nizhnyaya Taymyra river","id":16517,"lat":76.017,"lon":99.9,"site_type":"csn"},{"site_name":"Kamsko-Bakaldinskiye marshes","id":1577,"lat":56.25,"lon":45.083,"site_type":"csn"},{"site_name":"Russkoye lake","id":18858,"lat":59.567,"lon":63.017,"site_type":"csn"},{"site_name":"Middle reaches of Bolshaya Rogovaya river","id":1478,"lat":67.067,"lon":62.033,"site_type":"csn"},{"site_name":"Lake Vyal'ye and adjoining marshes","id":1527,"lat":59.167,"lon":30.167,"site_type":"csn"},{"site_name":"Bykovo lake","id":18826,"lat":55.533,"lon":67.767,"site_type":"csn"},{"site_name":"Bol'shiye and Maliye Donki lakes","id":18632,"lat":54.5,"lon":64.333,"site_type":"csn"},{"site_name":"Novotroitskoye reservoir","id":18596,"lat":45.3,"lon":41.533,"site_type":"csn"},{"site_name":"Lake Gorkoe at village Novotroitskoe","id":18706,"lat":55.367,"lon":67.95,"site_type":"csn"},{"site_name":"Kurnikov liman","id":22043,"lat":46.417,"lon":43.2,"site_type":"csn"},{"site_name":"Prikumskiye steppes","id":18600,"lat":45,"lon":45.583,"site_type":"csn"},{"site_name":"Manychstroi area","id":20508,"lat":45.95,"lon":43.75,"site_type":"csn"},{"site_name":"Chernoye Lake","id":18631,"lat":55.717,"lon":67.45,"site_type":"csn"},{"site_name":"Delta of River Severnaya Dvina","id":1468,"lat":64.5,"lon":40.333,"site_type":"csn"},{"site_name":"Neman river Delta and the coast of the Curonian (Courish) Bay","id":1576,"lat":54.933,"lon":21.233,"site_type":"csn"},{"site_name":"Mouth of Svir river","id":1524,"lat":60.617,"lon":32.967,"site_type":"csn"},{"site_name":"Cheremshanski Bay of Kuybyshev Reservoir","id":1633,"lat":54.033,"lon":49.333,"site_type":"csn"},{"site_name":"Seven islands","id":1515,"lat":68.75,"lon":37.5,"site_type":"csn"},{"site_name":"Zaonezh'ye","id":1473,"lat":62.233,"lon":35.117,"site_type":"csn"},{"site_name":"Ata-Anay Lake","id":18842,"lat":54.767,"lon":85.017,"site_type":"csn"},{"site_name":"Kalausskiye floods","id":22263,"lat":45.783,"lon":43.833,"site_type":"csn"},{"site_name":"Mouth of the river Uj","id":18626,"lat":54.25,"lon":63.933,"site_type":"csn"},{"site_name":"Vashutkiny, Padimeyskiye and Kharbeyskiye lakes","id":1509,"lat":68,"lon":62,"site_type":"csn"},{"site_name":"Central Meshchera lake system","id":1579,"lat":55.25,"lon":40.167,"site_type":"csn"},{"site_name":"Lena delta, Yakutia","id":50118,"lat":72.483,"lon":126.25,"site_type":"csn"},{"site_name":"Outskirts of Arbali village","id":22265,"lat":45.117,"lon":45.217,"site_type":"csn"},{"site_name":"Uttinskaya area","id":1620,"lat":46.233,"lon":46.1,"site_type":"csn"},{"site_name":"Varnavinsko-Kryukovskaya irrigation system","id":1616,"lat":45.667,"lon":38.417,"site_type":"csn"},{"site_name":"Shalkaro-Zhetykol'ski lake system","id":1602,"lat":50.917,"lon":60.833,"site_type":"csn"},{"site_name":"Watershed of the Mulym'ya and Bolshoy Tap rivers","id":18819,"lat":60.667,"lon":65.2,"site_type":"csn"},{"site_name":"Lake El'ton","id":1457,"lat":49.167,"lon":46.833,"site_type":"csn"},{"site_name":"Estuary of Voronja River to Gavrilovskaya","id":50697,"lat":69.174,"lon":35.802,"site_type":"csn"},{"site_name":"Zdvinsky zakaznik","id":18772,"lat":54.567,"lon":78.95,"site_type":"csn"},{"site_name":"River Chernaya","id":1511,"lat":68.167,"lon":57.283,"site_type":"csn"},{"site_name":"Sestroretsky Razliv","id":12551,"lat":60.1,"lon":30.017,"site_type":"csn"},{"site_name":"Kileinoye bog","id":18695,"lat":56.933,"lon":71.767,"site_type":"csn"},{"site_name":"Kiziltash limans","id":1546,"lat":45.167,"lon":37.083,"site_type":"csn"},{"site_name":"Mouth of Samur river","id":1432,"lat":41.867,"lon":48.5,"site_type":"csn"},{"site_name":"South-eastern coast of Lake Ladoga","id":1425,"lat":60.833,"lon":32.667,"site_type":"csn"},{"site_name":"Delta of the Kuban' river","id":22260,"lat":45.767,"lon":38.35,"site_type":"csn"},{"site_name":"Black Sea Coast - Section 6","id":50584,"lat":41.701,"lon":44.793,"site_type":"csn"},{"site_name":"Merzouga/Tamezguidat","id":6508,"lat":31.167,"lon":-4,"site_type":"csn"},{"site_name":"Alabota lake","id":18684,"lat":53.983,"lon":74,"site_type":"csn"},{"site_name":"Kazachka","id":24923,"lat":47.75,"lon":39.833,"site_type":"csn"},{"site_name":"Cranes area","id":22049,"lat":45.95,"lon":44.067,"site_type":"csn"},{"site_name":"Caspian Sea: Derbent Sea-shore","id":50691,"lat":42,"lon":48.333,"site_type":"csn"},{"site_name":"Spassk flood-plain of Oka river","id":26467,"lat":54.383,"lon":40.333,"site_type":"csn"},{"site_name":"Nordensheld archipelago, Kara Sea","id":50125,"lat":76.54,"lon":96.13,"site_type":"csn"},{"site_name":"Kupy area","id":1467,"lat":51.233,"lon":53.767,"site_type":"csn"},{"site_name":"Downstream of Ik river","id":24916,"lat":55.667,"lon":53.5,"site_type":"csn"},{"site_name":"Tulak lake","id":20059,"lat":53.25,"lon":61.067,"site_type":"csn"},{"site_name":"Gor'koye lake near Karas'ye village","id":18621,"lat":55.367,"lon":68.283,"site_type":"csn"},{"site_name":"Bylinskaya","id":25058,"lat":60.083,"lon":47.167,"site_type":"csn"},{"site_name":"Voroninski Nature Reserve","id":1563,"lat":52.5,"lon":42.5,"site_type":"csn"},{"site_name":"Velt River mouth and adjacent lagoon, Malozemelskaya tundra","id":50133,"lat":68,"lon":50,"site_type":"csn"},{"site_name":"Moksha valley in vicinity of Temnikov","id":1501,"lat":54.667,"lon":43.533,"site_type":"csn"},{"site_name":"Kamsko-Ikski area","id":1553,"lat":55.667,"lon":53.833,"site_type":"csn"},{"site_name":"Lake system near Lotoshnoye village","id":18777,"lat":54.167,"lon":78.867,"site_type":"csn"},{"site_name":"North flood-lands of Ishim river","id":18786,"lat":56.767,"lon":70.583,"site_type":"csn"},{"site_name":"Lower Verkhnyaya Taymyra river, Taimyr Peninsula","id":50121,"lat":74.05,"lon":99.1,"site_type":"csn"},{"site_name":"Temirgoiskiye lakes","id":12534,"lat":43.167,"lon":47.25,"site_type":"csn"},{"site_name":"Floodplain of Cheptsa river","id":24903,"lat":58.317,"lon":52.5,"site_type":"csn"},{"site_name":"Izhevsk flood-plain of Oka river","id":1587,"lat":54.667,"lon":41,"site_type":"csn"},{"site_name":"Lake Manych-Gudilo","id":1487,"lat":46.183,"lon":43,"site_type":"csn"},{"site_name":"Floodplain of Rudnya river and surroundings","id":20032,"lat":54.667,"lon":44.833,"site_type":"csn"},{"site_name":"Ptich'ya magistral' area","id":25038,"lat":54.5,"lon":36.25,"site_type":"csn"},{"site_name":"Jooium","id":50425,"lat":28.002,"lon":53.006,"site_type":"csn"},{"site_name":"Akdogan mountain","id":9589,"lat":39.117,"lon":41.817,"site_type":"csn"},{"site_name":"Faustovo flood-plains of Moscow river","id":1503,"lat":55.4,"lon":38.5,"site_type":"csn"},{"site_name":"Mount Beigua","id":2715,"lat":44.417,"lon":8.667,"site_type":"csn"},{"site_name":"Hochstetter Forland","id":50,"lat":75.45,"lon":-20,"site_type":"csn"},{"site_name":"Ghareh Chay River (Asad Abad)","id":50218,"lat":34.4,"lon":48.15,"site_type":"csn"},{"site_name":"Mare de Dole","id":50571,"lat":14.176,"lon":11.18,"site_type":"csn"},{"site_name":"Lake Magadi","id":6437,"lat":-1.867,"lon":36.283,"site_type":"csn"},{"site_name":"Wadi El Rayan Protected Area","id":6196,"lat":29.217,"lon":30.367,"site_type":"csn"},{"site_name":"Mafraq - Irbid plain","id":8188,"lat":32.495,"lon":36.045,"site_type":"csn"},{"site_name":"Iles Tristao","id":6363,"lat":10.85,"lon":-15,"site_type":"csn"},{"site_name":"Murchison Falls National Park","id":7060,"lat":2.25,"lon":31.667,"site_type":"csn"},{"site_name":"Neusiedler See","id":3206,"lat":47.817,"lon":16.767,"site_type":"csn"},{"site_name":"Hadicha Lake","id":50723,"lat":39.3,"lon":65.5,"site_type":"csn"},{"site_name":"Asinara island, Piana island and Stintino peninsula","id":2809,"lat":41.017,"lon":8.2,"site_type":"csn"},{"site_name":"Jiddah south corniche and port","id":8272,"lat":21.377,"lon":39.153,"site_type":"csn"},{"site_name":"Cape Caccia and Conte port","id":2810,"lat":40.567,"lon":8.183,"site_type":"csn"},{"site_name":"Hestur","id":95,"lat":61.967,"lon":-6.817,"site_type":"csn"},{"site_name":"Salt-lakes in the Primorsko-Akhtarsk area","id":1485,"lat":46,"lon":38.167,"site_type":"csn"},{"site_name":"Froan","id":3187,"lat":63.833,"lon":8.667,"site_type":"csn"},{"site_name":"Dniprodzerzhyns'ke reservoir","id":9546,"lat":48.8,"lon":34.2,"site_type":"csn"},{"site_name":"Laguna Chica (CA)","id":50410,"lat":36.635,"lon":-6.23,"site_type":"csn"},{"site_name":"Baro river","id":6274,"lat":8.333,"lon":33.617,"site_type":"csn"},{"site_name":"Kurgalski Peninsula","id":1628,"lat":59.633,"lon":28.15,"site_type":"csn"},{"site_name":"Burukshunskiye limans","id":1488,"lat":45.983,"lon":42.417,"site_type":"csn"},{"site_name":"Sologne Bourbonnaise","id":2151,"lat":46.6,"lon":3.6,"site_type":"csn"},{"site_name":"Lough Rea","id":682,"lat":53.183,"lon":-8.5,"site_type":"csn"},{"site_name":"Kakhovs'ke reservoir (Kozats'ki islands)","id":2105,"lat":46.833,"lon":33.5,"site_type":"csn"},{"site_name":"Kunda","id":18540,"lat":59.517,"lon":26.483,"site_type":"csn"},{"site_name":"Terschelling: De Boschplaat","id":1184,"lat":53.433,"lon":5.467,"site_type":"csn"},{"site_name":"Kornati National Park and Telascica Nature Park","id":3604,"lat":43.789,"lon":15.322,"site_type":"csn"},{"site_name":"Karamik marshes","id":799,"lat":38.433,"lon":30.833,"site_type":"csn"},{"site_name":"Polder Zeevang","id":1247,"lat":52.55,"lon":5.033,"site_type":"csn"},{"site_name":"Al-Kadan area","id":8342,"lat":15.295,"lon":43.225,"site_type":"csn"},{"site_name":"Duqm","id":8234,"lat":19.667,"lon":57.683,"site_type":"csn"},{"site_name":"Rufiji Delta","id":6995,"lat":-8,"lon":39.45,"site_type":"csn"},{"site_name":"Embouchure de l'Oued Dr'A","id":50174,"lat":28.677,"lon":-11.118,"site_type":"csn"},{"site_name":"Doğubayazıt Marshes","id":830,"lat":39.633,"lon":44.067,"site_type":"csn"},{"site_name":"Divari Pilou lagoon (Gialova)","id":1061,"lat":36.967,"lon":21.667,"site_type":"csn"},{"site_name":"Eastern part of German Bight (with Heligoland)","id":9105,"lat":54.2,"lon":8.3,"site_type":"csn"},{"site_name":"Lake Sibaya","id":7115,"lat":-27.333,"lon":32.633,"site_type":"csn"},{"site_name":"Red Lake","id":3617,"lat":40.333,"lon":49.75,"site_type":"csn"},{"site_name":"Jasiira Maydh","id":6858,"lat":11.233,"lon":47.25,"site_type":"csn"},{"site_name":"Lake Veersemeer","id":1209,"lat":51.533,"lon":3.733,"site_type":"csn"},{"site_name":"Danube: Km 1425-1432","id":50522,"lat":42.75,"lon":19.2,"site_type":"csn"},{"site_name":"Soltandag - Gyzylburun","id":20744,"lat":38.788,"lon":64.19,"site_type":"csn"},{"site_name":"Geziret Garah","id":6475,"lat":30.8,"lon":19.9,"site_type":"csn"},{"site_name":"Boulders Bay","id":7171,"lat":-34.2,"lon":18.45,"site_type":"csn"},{"site_name":"Bøtø Nor","id":3061,"lat":54.633,"lon":11.95,"site_type":"csn"},{"site_name":"Floodplain of Oka river in Vachski district of N.Novgorod region and adjacent areas of Vladimir region","id":20021,"lat":55.883,"lon":42.433,"site_type":"csn"},{"site_name":"Sitnikovski Reserve","id":1578,"lat":57.833,"lon":44.167,"site_type":"csn"},{"site_name":"Flood-plain of Kostroma river","id":1444,"lat":57.917,"lon":40.75,"site_type":"csn"},{"site_name":"Orshinski marshes","id":1558,"lat":57,"lon":36.5,"site_type":"csn"},{"site_name":"Arun Valley","id":2419,"lat":50.905,"lon":-0.549,"site_type":"csn"},{"site_name":"Po Delta","id":2740,"lat":44.933,"lon":12.267,"site_type":"csn"},{"site_name":"Rijn: Heteren-Amerongen","id":1227,"lat":51.95,"lon":5.667,"site_type":"csn"},{"site_name":"Trawbreaga Bay","id":545,"lat":55.283,"lon":-7.3,"site_type":"csn"},{"site_name":"Severo-donetskaya","id":24922,"lat":48.333,"lon":40.583,"site_type":"csn"},{"site_name":"Uyalyshalkar Lake System","id":22274,"lat":50.633,"lon":70.367,"site_type":"csn"},{"site_name":"Chiya wetland","id":6730,"lat":13.8,"lon":9.167,"site_type":"csn"},{"site_name":"Qaraoun Lake","id":20613,"lat":33.57,"lon":35.69,"site_type":"csn"},{"site_name":"Saros bay","id":9590,"lat":40.633,"lon":26.833,"site_type":"csn"},{"site_name":"Slupsk bank","id":9562,"lat":54.95,"lon":16.75,"site_type":"csn"},{"site_name":"Joal-Fadiouth","id":6851,"lat":14.133,"lon":-16.817,"site_type":"csn"},{"site_name":"Ceuta","id":1945,"lat":35.9,"lon":-5.317,"site_type":"csn"},{"site_name":"Groote Peel","id":1265,"lat":51.333,"lon":5.817,"site_type":"csn"},{"site_name":"Mata and Torrevieja lagoons","id":1826,"lat":38.05,"lon":-0.667,"site_type":"csn"},{"site_name":"DehtÃ¡r pond","id":37,"lat":49,"lon":14.283,"site_type":"csn"},{"site_name":"Tounsor Hollow Lakes","id":22519,"lat":51.267,"lon":62.383,"site_type":"csn"},{"site_name":"Dee Estuary","id":2454,"lat":53.328,"lon":-3.193,"site_type":"csn"},{"site_name":"Songor Ramsar Site","id":6346,"lat":5.817,"lon":0.467,"site_type":"csn"},{"site_name":"Sakumo Lagoon Ramsar Site","id":6345,"lat":5.617,"lon":-0.05,"site_type":"csn"},{"site_name":"LAC TCHAD/NIGERIA","id":50546,"lat":12.916,"lon":13.951,"site_type":"csn"},{"site_name":"Caspian coast: Guyjuk-Okarem","id":50597,"lat":37.67,"lon":53.82,"site_type":"csn"},{"site_name":"Sakarya Delta","id":9608,"lat":41.083,"lon":30.467,"site_type":"csn"},{"site_name":"Haddo House Lakes","id":50348,"lat":57.4,"lon":-2.2,"site_type":"csn"},{"site_name":"Sangachal Bay","id":177,"lat":40.15,"lon":49.5,"site_type":"csn"},{"site_name":"Lysyi Liman lake and valley of  Vostochniy Manych river","id":13015,"lat":45.8,"lon":44.083,"site_type":"csn"},{"site_name":"Upper part of Bolshaya Rogovaya river basin, Bolshezemelskaya tundra","id":50131,"lat":67.4,"lon":62.02,"site_type":"csn"},{"site_name":"Bannow Bay","id":606,"lat":52.217,"lon":-6.8,"site_type":"csn"},{"site_name":"Cousin island","id":6783,"lat":-4.333,"lon":55.667,"site_type":"csn"},{"site_name":"Lake Eemmeer","id":1223,"lat":52.283,"lon":5.317,"site_type":"csn"},{"site_name":"Shamkir Reservoir","id":50561,"lat":40.974,"lon":46.027,"site_type":"csn"},{"site_name":"Estuaire de la Loire","id":2384,"lat":47.267,"lon":-1.817,"site_type":"csn"},{"site_name":"Hunte lowlands near Oldenburg","id":3330,"lat":53.167,"lon":8.333,"site_type":"csn"},{"site_name":"South-east Svalbard Nature Reserve","id":3201,"lat":77.75,"lon":22.75,"site_type":"csn"},{"site_name":"Yasat islands","id":8329,"lat":24.25,"lon":52,"site_type":"csn"},{"site_name":"Erçek lake","id":773,"lat":38.65,"lon":43.617,"site_type":"csn"},{"site_name":"Niya-Yu River valley, the Polar Urals","id":50124,"lat":67.16,"lon":65.06,"site_type":"csn"},{"site_name":"Valley of Terek River (Mozdokski District)","id":18594,"lat":44.633,"lon":43.75,"site_type":"csn"},{"site_name":"Embalse de Santomera y ramblas adyacentes (MU)","id":50367,"lat":38.092,"lon":-1.091,"site_type":"csn"},{"site_name":"Falsterbo-Bay of Foteviken","id":849,"lat":55.418,"lon":12.875,"site_type":"csn"},{"site_name":"Vega archipelago","id":3163,"lat":65.817,"lon":11.75,"site_type":"csn"},{"site_name":"Novaraistis State Ornithological Reserve","id":224,"lat":54.933,"lon":23.4,"site_type":"csn"},{"site_name":"Solonyj Lyman lake","id":2126,"lat":48.65,"lon":35.517,"site_type":"csn"},{"site_name":"Caithness Lochs","id":2438,"lat":58.518,"lon":-3.392,"site_type":"csn"},{"site_name":"Col de Lizarrieta","id":2172,"lat":43.267,"lon":-1.6,"site_type":"csn"},{"site_name":"Guembeul Avifaunal Reserve and St Louis lagoons","id":6844,"lat":15.983,"lon":-16.467,"site_type":"csn"},{"site_name":"Rusinga Island","id":50555,"lat":-0.412,"lon":34.164,"site_type":"csn"},{"site_name":"Zombitse-Vohibasia National Park","id":6586,"lat":-22.617,"lon":44.817,"site_type":"csn"},{"site_name":"Loch of Strathbeg","id":2517,"lat":57.626,"lon":-1.888,"site_type":"csn"},{"site_name":"Kjoveland","id":54,"lat":71.367,"lon":-24.783,"site_type":"csn"},{"site_name":"Katao : Mamang (systeme de Mares Koufal)","id":50487,"lat":10.842,"lon":15.091,"site_type":"csn"},{"site_name":"Lough Kinale and Lough Derragh","id":650,"lat":53.767,"lon":-7.4,"site_type":"csn"},{"site_name":"Sibirskiye Lakes","id":18773,"lat":54.567,"lon":77.15,"site_type":"csn"},{"site_name":"Lake Maga","id":6107,"lat":10.833,"lon":15,"site_type":"csn"},{"site_name":"Eilean na Muice Duibh, Islay","id":2465,"lat":55.723,"lon":-6.257,"site_type":"csn"},{"site_name":"Tinhosas islands","id":6885,"lat":1.383,"lon":7.283,"site_type":"csn"},{"site_name":"Valle Bertuzzi and Goro lagoon","id":2741,"lat":44.783,"lon":12.25,"site_type":"csn"},{"site_name":"Naurzum State Nature Reserve","id":19952,"lat":51.517,"lon":64.283,"site_type":"csn"},{"site_name":"Aranasay Lake System","id":20653,"lat":40.849,"lon":67.825,"site_type":"csn"},{"site_name":"Stepnovski saltmarshes","id":12521,"lat":50,"lon":45.75,"site_type":"csn"},{"site_name":"Lapoo - Zargmarz ab-bandans","id":8084,"lat":36.833,"lon":53.283,"site_type":"csn"},{"site_name":"Ayorou","id":6723,"lat":14.667,"lon":0.917,"site_type":"csn"},{"site_name":"Goplo Lake Site","id":22059,"lat":52.433,"lon":18.317,"site_type":"csn"},{"site_name":"Gauja national park","id":326,"lat":57.3,"lon":25.067,"site_type":"csn"},{"site_name":"Voorhaven Zeebrugge and Baai van Heist","id":3586,"lat":51.35,"lon":3.183,"site_type":"csn"},{"site_name":"Barrage El Ogla","id":50491,"lat":36.19,"lon":10.08,"site_type":"csn"},{"site_name":"Zaranik Protected Area","id":6188,"lat":31.117,"lon":33.417,"site_type":"csn"},{"site_name":"Sultansazligi","id":755,"lat":38.367,"lon":35.267,"site_type":"csn"},{"site_name":"Pyasina delta, Taimyr Peninsula","id":50129,"lat":73.38,"lon":87.23,"site_type":"csn"},{"site_name":"Kenozer'ye","id":1472,"lat":61.917,"lon":38.117,"site_type":"csn"},{"site_name":"Strunjan saltpans","id":50001,"lat":45.527,"lon":13.605,"site_type":"csn"},{"site_name":"Dengizkul Lake","id":20675,"lat":39.125,"lon":64.111,"site_type":"csn"},{"site_name":"Sumony Fishpond","id":21926,"lat":45.965,"lon":17.887,"site_type":"csn"},{"site_name":"Pivdennyj Bug river valley (Goloskiv village)","id":9554,"lat":49.45,"lon":27.25,"site_type":"csn"},{"site_name":"Ushkol Lake","id":21979,"lat":45.667,"lon":78.088,"site_type":"csn"},{"site_name":"Polders Oudenbosch-Made","id":50028,"lat":51.648,"lon":4.693,"site_type":"csn"},{"site_name":"Morecambe Bay","id":2547,"lat":54.104,"lon":-2.978,"site_type":"csn"},{"site_name":"Nossentiner-/Schwinzer Heide with Krakower Obersee and Plauer See","id":3383,"lat":53.533,"lon":12.283,"site_type":"csn"},{"site_name":"Chernaya River, Bolshezemelskaya tundra","id":50087,"lat":68.12,"lon":57.13,"site_type":"csn"},{"site_name":"Mahshahr salt exploitation site","id":50339,"lat":30.529,"lon":49.093,"site_type":"csn"},{"site_name":"Masai Mara","id":6440,"lat":-1.5,"lon":35,"site_type":"csn"},{"site_name":"Qishn beach","id":8360,"lat":15.45,"lon":51.782,"site_type":"csn"},{"site_name":"Tavolara archipelago, Cape Ceraso and Cape Figari","id":2813,"lat":41,"lon":9.65,"site_type":"csn"},{"site_name":"Swartkops estuary, Redhouse and Chatty saltpans","id":7150,"lat":-33.85,"lon":25.583,"site_type":"csn"},{"site_name":"Musha","id":50594,"lat":11.727,"lon":43.192,"site_type":"csn"},{"site_name":"Etosha National Park","id":6703,"lat":-18.983,"lon":15.75,"site_type":"csn"},{"site_name":"Medina and Puerto Real lagoons","id":1860,"lat":36.617,"lon":-6.05,"site_type":"csn"},{"site_name":"Mpenjati River Estuary","id":50165,"lat":-30.971,"lon":30.283,"site_type":"csn"},{"site_name":"Garaet Douza","id":6946,"lat":34.467,"lon":8.483,"site_type":"csn"},{"site_name":"Oued Maltine","id":50760,"lat":34.487,"lon":10.43,"site_type":"csn"},{"site_name":"Carlingford Lough","id":633,"lat":54.067,"lon":-6.2,"site_type":"csn"},{"site_name":"Polisto-Lovatskaya mire system","id":1551,"lat":57.25,"lon":30.667,"site_type":"csn"},{"site_name":"Pelymsky Tuman","id":18661,"lat":59.933,"lon":63.3,"site_type":"csn"},{"site_name":"Carlingford Lough","id":2441,"lat":54.059,"lon":-6.139,"site_type":"csn"},{"site_name":"Rusanda","id":50523,"lat":45.527,"lon":20.297,"site_type":"csn"},{"site_name":"Sebkhet Kelbia","id":6937,"lat":35.833,"lon":10.333,"site_type":"csn"},{"site_name":"Kvismaren","id":866,"lat":59.177,"lon":15.396,"site_type":"csn"},{"site_name":"Plaines du Logone et Chari","id":50696,"lat":11.367,"lon":15.133,"site_type":"csn"},{"site_name":"Tierra de Campos steppes","id":1895,"lat":42.15,"lon":-5.2,"site_type":"csn"},{"site_name":"Lough Neagh and Lough Beg","id":2531,"lat":54.584,"lon":-6.446,"site_type":"csn"},{"site_name":"Laghi Pontini","id":50066,"lat":41.69,"lon":12.849,"site_type":"csn"},{"site_name":"Depuradora de Cartagena (MU)","id":50402,"lat":37.623,"lon":-0.949,"site_type":"csn"},{"site_name":"Kaliakra","id":18973,"lat":43.408,"lon":28.445,"site_type":"csn"},{"site_name":"Mondego Estuary","id":19672,"lat":40.133,"lon":-8.833,"site_type":"csn"},{"site_name":"Chardara Reservoir","id":19944,"lat":41.167,"lon":68.183,"site_type":"csn"},{"site_name":"Lake Geneva: Grangettes","id":3266,"lat":46.367,"lon":6.9,"site_type":"csn"},{"site_name":"Alte Oder","id":9202,"lat":52.9,"lon":14.133,"site_type":"csn"},{"site_name":"Mekhteb reservoir","id":12538,"lat":43.333,"lon":47.433,"site_type":"csn"},{"site_name":"Koycegiz lake","id":801,"lat":36.867,"lon":28.633,"site_type":"csn"},{"site_name":"Estuaires picards : baies de Somme et d'Authie","id":2381,"lat":50.25,"lon":1.6,"site_type":"csn"},{"site_name":"Kafue National Park","id":7188,"lat":-15.383,"lon":26,"site_type":"csn"},{"site_name":"Unskaya bay","id":13013,"lat":64.75,"lon":38.25,"site_type":"csn"},{"site_name":"Lomellina and Heronries of Pavia province","id":2728,"lat":45.3,"lon":9.167,"site_type":"csn"},{"site_name":"Anzali Mordab complex","id":8078,"lat":37.417,"lon":49.467,"site_type":"csn"},{"site_name":"Mingechaur reservoir: West: South bay","id":50455,"lat":40.938,"lon":46.557,"site_type":"csn"},{"site_name":"Lemmenjoki-Hammastunturi-Pulju","id":1377,"lat":68.583,"lon":25.5,"site_type":"csn"},{"site_name":"Dareh Shahr Region: Saimareh River","id":50676,"lat":33.12,"lon":47.14,"site_type":"csn"},{"site_name":"Gaidan Tchoukou","id":50580,"lat":13.516,"lon":2.116,"site_type":"csn"},{"site_name":"Rietpan","id":50467,"lat":-28.665,"lon":26.304,"site_type":"csn"},{"site_name":"Lagune de Korba","id":6931,"lat":36.683,"lon":10.933,"site_type":"csn"},{"site_name":"Chechen' Island and east seaside of Agrakhan peninsula","id":24661,"lat":43.917,"lon":47.717,"site_type":"csn"},{"site_name":"Olonets plain","id":1429,"lat":60.933,"lon":32.917,"site_type":"csn"},{"site_name":"Klivodyns'kyj protected locality","id":2099,"lat":48.467,"lon":25.783,"site_type":"csn"},{"site_name":"Ogurjaly island","id":22128,"lat":38.955,"lon":53.502,"site_type":"csn"},{"site_name":"Halaaniyaat Islands","id":8238,"lat":17.5,"lon":55.967,"site_type":"csn"},{"site_name":"Roodeplaat Dam","id":50330,"lat":-25.626,"lon":28.37,"site_type":"csn"},{"site_name":"Tuzashchy and Karasor Lakes","id":22276,"lat":50.35,"lon":70.283,"site_type":"csn"},{"site_name":"Cervia saltpans","id":2754,"lat":44.25,"lon":12.35,"site_type":"csn"},{"site_name":"Nakhilu, Morghu and Ummal Karam islands","id":8155,"lat":27.833,"lon":51.5,"site_type":"csn"},{"site_name":"Eastern bight of the Fehmarnsund","id":3312,"lat":54.383,"lon":11.133,"site_type":"csn"},{"site_name":"Kongsøy","id":3144,"lat":70.733,"lon":29.5,"site_type":"csn"},{"site_name":"Valley of Zhizdra river","id":12562,"lat":54.167,"lon":35.917,"site_type":"csn"},{"site_name":"Tanji River (Karinti) Bird Reserve","id":6351,"lat":13.367,"lon":-16.8,"site_type":"csn"},{"site_name":"Broadland","id":2551,"lat":52.669,"lon":1.537,"site_type":"csn"},{"site_name":"Bao Bolon Wetland Reserve","id":6354,"lat":13.517,"lon":-15.833,"site_type":"csn"},{"site_name":"Ammiq wetland","id":8214,"lat":33.732,"lon":35.785,"site_type":"csn"},{"site_name":"Tacumshin lake","id":610,"lat":52.183,"lon":-6.483,"site_type":"csn"},{"site_name":"Palas lake","id":813,"lat":39.017,"lon":35.817,"site_type":"csn"},{"site_name":"La Petite CÃ´te","id":6850,"lat":14.433,"lon":-17.017,"site_type":"csn"},{"site_name":"Kerch peninsula (S part) wetlands","id":50499,"lat":45.168,"lon":35.989,"site_type":"csn"},{"site_name":"Jansheijs'ke lake","id":2072,"lat":45.633,"lon":29.783,"site_type":"csn"},{"site_name":"Elbe lowlands between Schnackenburg and Lauenburg","id":3326,"lat":53.3,"lon":10.75,"site_type":"csn"},{"site_name":"Middle Notec River Valley","id":22090,"lat":53.083,"lon":17.333,"site_type":"csn"},{"site_name":"Sura environs","id":1440,"lat":55.05,"lon":46.533,"site_type":"csn"},{"site_name":"Samaria","id":50268,"lat":32.3,"lon":35.28,"site_type":"csn"},{"site_name":"River Mijares mouth","id":1821,"lat":39.95,"lon":-0.017,"site_type":"csn"},{"site_name":"Markakol State Nature Reserve","id":21977,"lat":48.733,"lon":85.783,"site_type":"csn"},{"site_name":"Irtysh-Karaganda Waterworks 10","id":20659,"lat":50.79,"lon":73.672,"site_type":"csn"},{"site_name":"Selati Tailings Dam","id":50631,"lat":-24.03,"lon":31.098,"site_type":"csn"},{"site_name":"Barrage Wad al Makhazine","id":50241,"lat":34.95,"lon":-5.75,"site_type":"csn"},{"site_name":"Ayvalik","id":9595,"lat":39.333,"lon":26.65,"site_type":"csn"},{"site_name":"Spitskop Dam","id":7096,"lat":-28.067,"lon":24.55,"site_type":"csn"},{"site_name":"Hirfanli reservoir","id":814,"lat":38.133,"lon":33.7,"site_type":"csn"},{"site_name":"Untermain","id":9253,"lat":50.133,"lon":8.833,"site_type":"csn"},{"site_name":"Green Lake","id":6268,"lat":8.85,"lon":39.1,"site_type":"csn"},{"site_name":"Wadi El Natrun","id":6197,"lat":30.467,"lon":30.267,"site_type":"csn"},{"site_name":"Central Marshes","id":8058,"lat":31.167,"lon":47.083,"site_type":"csn"},{"site_name":"Provadiysko-Royaksko plateau","id":437,"lat":43.172,"lon":27.274,"site_type":"csn"},{"site_name":"Southern Seewinkel and Zitzmannsdorfer Wiesen","id":3205,"lat":47.75,"lon":16.833,"site_type":"csn"},{"site_name":"Putten en Spui","id":50048,"lat":51.825,"lon":4.246,"site_type":"csn"},{"site_name":"Budnyanski mire","id":1466,"lat":55.5,"lon":32.5,"site_type":"csn"},{"site_name":"Namga wetland","id":6722,"lat":14.183,"lon":1.033,"site_type":"csn"},{"site_name":"Benghazi","id":6472,"lat":32.217,"lon":20.15,"site_type":"csn"},{"site_name":"Khorezm Fish Farm and adjacent lakes","id":22279,"lat":41.272,"lon":60.553,"site_type":"csn"},{"site_name":"Jabal Moussa Mountain","id":24245,"lat":34.051,"lon":35.765,"site_type":"csn"},{"site_name":"Zambezi River Delta","id":6691,"lat":-18.5,"lon":36,"site_type":"csn"},{"site_name":"Valley of the Yorkutayakha river","id":18664,"lat":68.217,"lon":68.933,"site_type":"csn"},{"site_name":"Pakri","id":18550,"lat":59.35,"lon":24.217,"site_type":"csn"},{"site_name":"Koka dam and Lake Gelila","id":6273,"lat":8.5,"lon":39,"site_type":"csn"},{"site_name":"Dez river marshes and plains","id":8121,"lat":31.833,"lon":48.633,"site_type":"csn"},{"site_name":"Lepelaarplassen","id":1245,"lat":52.4,"lon":5.2,"site_type":"csn"},{"site_name":"Ædey","id":535,"lat":66.1,"lon":-22.667,"site_type":"csn"},{"site_name":"Acıgöl Lake","id":763,"lat":37.8,"lon":29.817,"site_type":"csn"},{"site_name":"Nida-Perkone","id":9507,"lat":56.233,"lon":20.967,"site_type":"csn"},{"site_name":"Westwater Reservoir","id":2634,"lat":55.758,"lon":-3.41,"site_type":"csn"},{"site_name":"Teletskoye lake","id":18642,"lat":51.567,"lon":87.667,"site_type":"csn"},{"site_name":"Somerset Levels and Moors","id":2595,"lat":51.198,"lon":-2.841,"site_type":"csn"},{"site_name":"Montagne de la Serre","id":2150,"lat":45.667,"lon":3.067,"site_type":"csn"},{"site_name":"Adzihol lake","id":50441,"lat":45.102,"lon":35.456,"site_type":"csn"},{"site_name":"Chelekleka lake and swamp","id":6267,"lat":8.85,"lon":38.967,"site_type":"csn"},{"site_name":"LÃµu bay","id":286,"lat":58.117,"lon":22.15,"site_type":"csn"},{"site_name":"Musambwa islands","id":7054,"lat":-0.783,"lon":31.783,"site_type":"csn"},{"site_name":"Bamenjin Reservoir","id":50603,"lat":5.51,"lon":10.443,"site_type":"csn"},{"site_name":"Uyuz lake","id":806,"lat":39.233,"lon":32.917,"site_type":"csn"},{"site_name":"Khoor-e Gavbandi (Jaso)","id":50288,"lat":25.004,"lon":57.003,"site_type":"csn"},{"site_name":"Lake Nakuru National Park","id":6439,"lat":-0.367,"lon":36.083,"site_type":"csn"},{"site_name":"Lake Tysslingen","id":885,"lat":59.311,"lon":15.045,"site_type":"csn"},{"site_name":"Vila Fernando","id":380,"lat":38.9,"lon":-7.35,"site_type":"csn"},{"site_name":"Dollart","id":9145,"lat":53.333,"lon":7,"site_type":"csn"},{"site_name":"Bemaraha Tsingy National Park and Strict Nature Reserve","id":6558,"lat":-18.65,"lon":44.75,"site_type":"csn"},{"site_name":"Sandoy","id":96,"lat":61.85,"lon":-6.8,"site_type":"csn"},{"site_name":"Djoudj wetlands","id":6840,"lat":16.333,"lon":-16.25,"site_type":"csn"},{"site_name":"Pozharevo Island","id":431,"lat":44.064,"lon":26.698,"site_type":"csn"},{"site_name":"Marimetsa-Õmma","id":269,"lat":58.933,"lon":23.983,"site_type":"csn"},{"site_name":"Pohorelice ponds","id":50786,"lat":48.933,"lon":16.533,"site_type":"csn"},{"site_name":"Migliarino-San Rossore","id":2757,"lat":43.767,"lon":10.267,"site_type":"csn"},{"site_name":"Dobskie Lake","id":22074,"lat":54.067,"lon":21.6,"site_type":"csn"},{"site_name":"Lake Kis-Balaton","id":1388,"lat":46.667,"lon":17.217,"site_type":"csn"},{"site_name":"Bel'skaya flood-plain","id":1615,"lat":55.083,"lon":55.75,"site_type":"csn"},{"site_name":"Rocher Pan","id":50220,"lat":-32.612,"lon":18.3,"site_type":"csn"},{"site_name":"Laguna del Comisario (CA)","id":50409,"lat":36.51,"lon":-6.026,"site_type":"csn"},{"site_name":"Lake Mikri Prespa and Lake Megali Prespa","id":1015,"lat":40.75,"lon":21.05,"site_type":"csn"},{"site_name":"Bombetoka Bay and Marovoay wetlands","id":6545,"lat":-15.917,"lon":46.517,"site_type":"csn"},{"site_name":"Zone Humide de Machiouha (Kebili)","id":50452,"lat":35,"lon":9,"site_type":"csn"},{"site_name":"South Pennine and Peak District Moors","id":2698,"lat":53.512,"lon":-1.867,"site_type":"csn"},{"site_name":"Banc d'Arguin National Park","id":6629,"lat":20.117,"lon":-16.267,"site_type":"csn"},{"site_name":"Elbe marshes between Stade and Otterndorf","id":3325,"lat":53.85,"lon":9.167,"site_type":"csn"},{"site_name":"Lake Manzala","id":6191,"lat":31.283,"lon":32.067,"site_type":"csn"},{"site_name":"Aftout es Sâheli","id":6634,"lat":17.367,"lon":-16.133,"site_type":"csn"},{"site_name":"Ajai Wildlife Reserve","id":7061,"lat":2.867,"lon":31.167,"site_type":"csn"},{"site_name":"Al Jadriyah and Umm Al Khanazeer island","id":8035,"lat":33.333,"lon":44.4,"site_type":"csn"},{"site_name":"Jordan Valley","id":8190,"lat":32.267,"lon":35.567,"site_type":"csn"},{"site_name":"Islets of Farquhar atoll","id":6797,"lat":-10.183,"lon":51.117,"site_type":"csn"},{"site_name":"Middle Vistula River Valley","id":948,"lat":52.05,"lon":20.617,"site_type":"csn"},{"site_name":"Straldzha Complex","id":433,"lat":42.623,"lon":26.792,"site_type":"csn"},{"site_name":"Barrage de la Cheffia","id":6162,"lat":36.567,"lon":8.033,"site_type":"csn"},{"site_name":"Mid-Pripyat","id":196,"lat":52.25,"lon":27,"site_type":"csn"},{"site_name":"Danube; from Orsova to Dobra (Km 1033-946)","id":50289,"lat":44.467,"lon":22.142,"site_type":"csn"},{"site_name":"East Sanday","id":2462,"lat":59.258,"lon":-2.512,"site_type":"csn"},{"site_name":"Badam Reservoir","id":50675,"lat":42.229,"lon":69.773,"site_type":"csn"},{"site_name":"Lake Oursi - Lake Darkoye","id":6024,"lat":14.7,"lon":-0.083,"site_type":"csn"},{"site_name":"IJssel: IJsselkop-Ketelmeer","id":9586,"lat":52.4,"lon":6.133,"site_type":"csn"},{"site_name":"Lake Sourou","id":6025,"lat":12.833,"lon":-3.467,"site_type":"csn"},{"site_name":"Chokpak Pass","id":19956,"lat":42.517,"lon":70.633,"site_type":"csn"},{"site_name":"Dawhat Sawqirah","id":50251,"lat":18.619,"lon":56.769,"site_type":"csn"},{"site_name":"Lower Rhine","id":3450,"lat":51.767,"lon":6.4,"site_type":"csn"},{"site_name":"Sankebay Lakes","id":22563,"lat":51.4,"lon":63.533,"site_type":"csn"},{"site_name":"Upper Vistula River Valley","id":24463,"lat":49.883,"lon":18.833,"site_type":"csn"},{"site_name":"Veselovskoye reservoir","id":1427,"lat":47,"lon":41.5,"site_type":"csn"},{"site_name":"Geziret al Elba - Ayn al Ghazalah Bay","id":6473,"lat":32.217,"lon":23.3,"site_type":"csn"},{"site_name":"Khor Jask","id":8163,"lat":25.667,"lon":57.667,"site_type":"csn"},{"site_name":"Sierra Morena de Sevilla","id":1840,"lat":37.833,"lon":-6,"site_type":"csn"},{"site_name":"Lake Megali Prespa","id":2901,"lat":40.883,"lon":20.95,"site_type":"csn"},{"site_name":"Balgzand","id":1191,"lat":52.917,"lon":4.767,"site_type":"csn"},{"site_name":"Overstrand","id":24592,"lat":-34.376,"lon":19.391,"site_type":"csn"},{"site_name":"Zoommeer","id":1207,"lat":51.5,"lon":4.2,"site_type":"csn"},{"site_name":"Vogelsberg","id":9235,"lat":50.55,"lon":9.25,"site_type":"csn"},{"site_name":"Estuaires du Trieux et du Jaudy","id":2199,"lat":48.833,"lon":-3.117,"site_type":"csn"},{"site_name":"Inner Galway Bay","id":581,"lat":53.2,"lon":-9.05,"site_type":"csn"},{"site_name":"Loch of Lintrathen","id":2515,"lat":56.681,"lon":-3.179,"site_type":"csn"},{"site_name":"Engelsmanplaat","id":1187,"lat":53.45,"lon":6.05,"site_type":"csn"},{"site_name":"Pomene","id":6689,"lat":-23,"lon":35.5,"site_type":"csn"},{"site_name":"Watershed of Bityug and Tsna rivers","id":1475,"lat":52.167,"lon":41.25,"site_type":"csn"},{"site_name":"Szczecin lagoon","id":912,"lat":53.717,"lon":14.467,"site_type":"csn"},{"site_name":"Alange","id":1924,"lat":38.667,"lon":-6.25,"site_type":"csn"},{"site_name":"Albufera de Mallorca and Albufereta de PollenÃ§a marshes","id":1887,"lat":39.783,"lon":3.1,"site_type":"csn"},{"site_name":"AlcÃ¡ntara reservoir-Cuatro Lugares","id":1724,"lat":39.75,"lon":-6.5,"site_type":"csn"},{"site_name":"AlcÃ¡zar de San Juan-Quero endorreic lagoons","id":1710,"lat":39.5,"lon":-3.167,"site_type":"csn"},{"site_name":"Álftafjördur-Hamarsfjördur","id":530,"lat":64.567,"lon":-14.5,"site_type":"csn"},{"site_name":"Álftafjördur-Hofsstadavogur","id":508,"lat":65,"lon":-22.667,"site_type":"csn"},{"site_name":"Álftanes-Akrar","id":506,"lat":64.517,"lon":-22.25,"site_type":"csn"},{"site_name":"Alkaline pusztas of Upper Kiskunság","id":1394,"lat":46.817,"lon":19.25,"site_type":"csn"},{"site_name":"Altmühl valley between Treuchtlingen and Leutershausen with Altmühlsee","id":3359,"lat":49.15,"lon":10.7,"site_type":"csn"},{"site_name":"Bodrogzug-Taktaköz","id":1403,"lat":48.25,"lon":21.333,"site_type":"csn"},{"site_name":"Ålvand Klithede and Førby Sø","id":3035,"lat":56.95,"lon":8.417,"site_type":"csn"},{"site_name":"Amersfoort - Bethal - Carolina District","id":7089,"lat":-26.533,"lon":29.833,"site_type":"csn"},{"site_name":"AmpurdÃ¡n marshes","id":1808,"lat":42.2,"lon":3.117,"site_type":"csn"},{"site_name":"El Hondo wetland","id":1824,"lat":38.333,"lon":-0.7,"site_type":"csn"},{"site_name":"Celijsko Jezero","id":50247,"lat":43.411,"lon":21.169,"site_type":"csn"},{"site_name":"Berkubinski forest","id":12537,"lat":41.667,"lon":48.367,"site_type":"csn"},{"site_name":"Sierra Leone River Estuary","id":6834,"lat":8.617,"lon":-13.05,"site_type":"csn"},{"site_name":"Almenara marshes","id":1822,"lat":39.767,"lon":-0.233,"site_type":"csn"},{"site_name":"Greifswalder Bodden","id":3379,"lat":54.217,"lon":13.517,"site_type":"csn"},{"site_name":"Hamr an Nafur","id":8232,"lat":19.8,"lon":57.8,"site_type":"csn"},{"site_name":"Hamme lowlands","id":3331,"lat":53.25,"lon":8.9,"site_type":"csn"},{"site_name":"Kopetdagkhovudan","id":22122,"lat":38.239,"lon":57.869,"site_type":"csn"},{"site_name":"Nautedam","id":50655,"lat":-26.932,"lon":17.939,"site_type":"csn"},{"site_name":"Karasuk","id":21916,"lat":53.5,"lon":77.133,"site_type":"csn"},{"site_name":"Possession Island","id":6717,"lat":-27.017,"lon":15.2,"site_type":"csn"},{"site_name":"Plovdiv Fish-ponds","id":427,"lat":42.187,"lon":24.758,"site_type":"csn"},{"site_name":"Baath Lake","id":8299,"lat":35.867,"lon":38.633,"site_type":"csn"},{"site_name":"Kitangire to Sibiti mouth (aerial)","id":50587,"lat":-4.009,"lon":34.399,"site_type":"csn"},{"site_name":"Flood-plain of Kotorosl' and Ust'e rivers","id":1439,"lat":57.25,"lon":39.667,"site_type":"csn"},{"site_name":"Andøya","id":3186,"lat":69.167,"lon":16,"site_type":"csn"},{"site_name":"Anse du Fiers d'Ars en Ré","id":2359,"lat":46.217,"lon":-1.45,"site_type":"csn"},{"site_name":"Archipel de Molène","id":2202,"lat":48.367,"lon":-4.933,"site_type":"csn"},{"site_name":"Archipel des Glénan","id":2206,"lat":47.75,"lon":-4,"site_type":"csn"},{"site_name":"Arnarvatnsheidi-Tvídægra","id":513,"lat":65,"lon":-20.5,"site_type":"csn"},{"site_name":"Lake Lacha","id":1469,"lat":61.333,"lon":38.583,"site_type":"csn"},{"site_name":"Krasnoarmeiskiye waste lands","id":22016,"lat":43,"lon":47.4,"site_type":"csn"},{"site_name":"ArquipÃ©lago dos BijagÃ³s","id":6389,"lat":11.25,"lon":-16,"site_type":"csn"},{"site_name":"Arresø","id":3015,"lat":56,"lon":12.167,"site_type":"csn"},{"site_name":"Artzan marshes","id":999,"lat":41.017,"lon":22.65,"site_type":"csn"},{"site_name":"Brodtener Ufer","id":3316,"lat":53.983,"lon":10.867,"site_type":"csn"},{"site_name":"Lac Oued Laya","id":50432,"lat":35.067,"lon":10.383,"site_type":"csn"},{"site_name":"Ballum og Husum Enge, Kamper strandenge","id":2975,"lat":55.133,"lon":8.717,"site_type":"csn"},{"site_name":"Lake Trasimeno","id":2768,"lat":43.15,"lon":12.083,"site_type":"csn"},{"site_name":"Wilderness - Sedgefield lakes complex","id":7168,"lat":-34,"lon":22.733,"site_type":"csn"},{"site_name":"Dragonera Island-La Trapa","id":1884,"lat":39.583,"lon":2.35,"site_type":"csn"},{"site_name":"Zhrebchevo Reservoir","id":18974,"lat":42.619,"lon":25.861,"site_type":"csn"},{"site_name":"Hareket Pond","id":50537,"lat":7.933,"lon":38.067,"site_type":"csn"},{"site_name":"Upper and Middle Yuribey","id":20057,"lat":68.383,"lon":71.417,"site_type":"csn"},{"site_name":"Swans area (southern shore of Finski Bay)","id":1629,"lat":60,"lon":29.25,"site_type":"csn"},{"site_name":"Floodplain of the Terek river near Staroshchedrinskaya","id":22011,"lat":43.467,"lon":46.25,"site_type":"csn"},{"site_name":"Chudsko-Pskovski Lake and adjacent areas","id":1529,"lat":58.5,"lon":27.817,"site_type":"csn"},{"site_name":"Solovetski archipelago","id":1522,"lat":65.083,"lon":35.75,"site_type":"csn"},{"site_name":"Makkah waste-water stream","id":8273,"lat":21.2,"lon":39.65,"site_type":"csn"},{"site_name":"Dwangwa Sugar Estate / Dwangwa River Estuary","id":50380,"lat":-12.533,"lon":34.183,"site_type":"csn"},{"site_name":"Los Tollos lake","id":1964,"lat":36.867,"lon":-6,"site_type":"csn"},{"site_name":"Pori archipelago and wetlands","id":1297,"lat":61.533,"lon":21.6,"site_type":"csn"},{"site_name":"Mersey Estuary","id":2537,"lat":53.3,"lon":-2.83,"site_type":"csn"},{"site_name":"Fair Isle","id":2468,"lat":59.533,"lon":-1.628,"site_type":"csn"},{"site_name":"Petrocrepost' Bay","id":12548,"lat":59.917,"lon":31.267,"site_type":"csn"},{"site_name":"Qarnayn island","id":8325,"lat":24.933,"lon":52.85,"site_type":"csn"},{"site_name":"AzutÃ¡n reservoir","id":1717,"lat":39.833,"lon":-5.167,"site_type":"csn"},{"site_name":"Bahir Dar - Lake Tana","id":6241,"lat":11.617,"lon":37.417,"site_type":"csn"},{"site_name":"Baie de BouÃ©ni","id":7074,"lat":-12.917,"lon":45.15,"site_type":"csn"},{"site_name":"Murphy's Rust","id":7109,"lat":-28.3,"lon":29.383,"site_type":"csn"},{"site_name":"Littoral Augeron","id":2193,"lat":49.367,"lon":-0.15,"site_type":"csn"},{"site_name":"Ile Alcatraz et Ile du Naufrage","id":6364,"lat":10.633,"lon":-15.383,"site_type":"csn"},{"site_name":"Adzhi Lake","id":1433,"lat":42.317,"lon":48.083,"site_type":"csn"},{"site_name":"Masri reservoir","id":6932,"lat":36.517,"lon":10.483,"site_type":"csn"},{"site_name":"Vaal Dam: East","id":50158,"lat":-26.85,"lon":28.18,"site_type":"csn"},{"site_name":"Plane lowlands","id":9222,"lat":52.267,"lon":12.583,"site_type":"csn"},{"site_name":"Gavdos and Gavdopoula islands","id":1178,"lat":34.85,"lon":24.083,"site_type":"csn"},{"site_name":"Kolkheti","id":3085,"lat":42.167,"lon":41.833,"site_type":"csn"},{"site_name":"Kosobo-Kelebski reserve","id":22014,"lat":42.25,"lon":46.333,"site_type":"csn"},{"site_name":"Leine valley near Salzderhelden","id":3486,"lat":51.75,"lon":9.95,"site_type":"csn"},{"site_name":"Sebkhet Ariana","id":50756,"lat":36.921,"lon":10.239,"site_type":"csn"},{"site_name":"Akrotiri Salt Lake/Zakaki","id":50060,"lat":34.624,"lon":32.973,"site_type":"csn"},{"site_name":"Warta River Mouth","id":930,"lat":52.567,"lon":14.717,"site_type":"csn"},{"site_name":"Stafnes-Gardur","id":500,"lat":64.067,"lon":-22.7,"site_type":"csn"},{"site_name":"Lahepera lake","id":295,"lat":58.567,"lon":27.217,"site_type":"csn"},{"site_name":"Taman'","id":22188,"lat":45.283,"lon":36.75,"site_type":"csn"},{"site_name":"Ropka-Ihaste","id":300,"lat":58.333,"lon":26.767,"site_type":"csn"},{"site_name":"Orange river mouth wetlands","id":7098,"lat":-28.6,"lon":16.467,"site_type":"csn"},{"site_name":"Paul do Taipal","id":387,"lat":40.183,"lon":-8.683,"site_type":"csn"},{"site_name":"Karala-Pilguse","id":288,"lat":58.25,"lon":21.9,"site_type":"csn"},{"site_name":"Puerto de Cambrils (T)","id":50457,"lat":40.417,"lon":-3.703,"site_type":"csn"},{"site_name":"Burnaya River Mouth","id":12549,"lat":60.667,"lon":30.533,"site_type":"csn"},{"site_name":"La Serena","id":1751,"lat":38.833,"lon":-5.5,"site_type":"csn"},{"site_name":"Yersekse and Kapelse Moer","id":1259,"lat":51.483,"lon":4.033,"site_type":"csn"},{"site_name":"Magaliesberg and Witwatersberg","id":7093,"lat":-25.75,"lon":27.667,"site_type":"csn"},{"site_name":"Lake Manyara National Park","id":6967,"lat":-3.667,"lon":35.833,"site_type":"csn"},{"site_name":"Konka river mouth","id":9539,"lat":47.317,"lon":35.167,"site_type":"csn"},{"site_name":"Crau","id":2328,"lat":43.6,"lon":4.867,"site_type":"csn"},{"site_name":"Haaler Au lowlands","id":9108,"lat":54.183,"lon":9.517,"site_type":"csn"},{"site_name":"Rheiderland","id":3462,"lat":53.25,"lon":7.3,"site_type":"csn"},{"site_name":"Dzheiran Ecocentre","id":20690,"lat":39.61,"lon":64.65,"site_type":"csn"},{"site_name":"Larnaca salt-lakes","id":30,"lat":34.867,"lon":33.617,"site_type":"csn"},{"site_name":"Balta Albă - Amara - Jirlău","id":449,"lat":45.216,"lon":27.268,"site_type":"csn"},{"site_name":"Balta Mică a Brăilei","id":466,"lat":44.941,"lon":27.906,"site_type":"csn"},{"site_name":"Akzhar Lakes","id":21947,"lat":43.983,"lon":69.75,"site_type":"csn"},{"site_name":"Haapavesi wetlands","id":1347,"lat":64.217,"lon":25.383,"site_type":"csn"},{"site_name":"Spreewald","id":3424,"lat":51.95,"lon":13.883,"site_type":"csn"},{"site_name":"Lac Fati","id":6612,"lat":16.2,"lon":-3.683,"site_type":"csn"},{"site_name":"Lac des Oiseaux / Garaet et Touyour","id":6160,"lat":36.783,"lon":8.117,"site_type":"csn"},{"site_name":"Becej fish-pond","id":3077,"lat":45.583,"lon":20.05,"site_type":"csn"},{"site_name":"Ouse Washes","id":2566,"lat":52.459,"lon":0.178,"site_type":"csn"},{"site_name":"Snyvoda river valley","id":9566,"lat":49.5,"lon":28.333,"site_type":"csn"},{"site_name":"Rhine flats Sasbach - Wittenweier","id":3554,"lat":48.25,"lon":7.683,"site_type":"csn"},{"site_name":"Low Tietar river and La Vera valley","id":1956,"lat":40.083,"lon":-5.583,"site_type":"csn"},{"site_name":"Lille Vildmose","id":3030,"lat":56.867,"lon":10.217,"site_type":"csn"},{"site_name":"Untersee of Lake Constance","id":3541,"lat":47.7,"lon":9.033,"site_type":"csn"},{"site_name":"Shilovo flood-plain of Oka river","id":1586,"lat":54.333,"lon":40.75,"site_type":"csn"},{"site_name":"Baturiya Complex","id":50592,"lat":12.337,"lon":10.156,"site_type":"csn"},{"site_name":"Bolluk lake","id":748,"lat":38.417,"lon":32.883,"site_type":"csn"},{"site_name":"Lake Sarysu","id":178,"lat":40.083,"lon":48.167,"site_type":"csn"},{"site_name":"Cameron Reservoir","id":2439,"lat":56.291,"lon":-2.854,"site_type":"csn"},{"site_name":"Loch Shin and nearby lochs","id":2521,"lat":58.109,"lon":-4.554,"site_type":"csn"},{"site_name":"Severn Estuary","id":2591,"lat":51.59,"lon":-2.678,"site_type":"csn"},{"site_name":"Sandveld and Bloemhof Dam Nature Reserves","id":7104,"lat":-27.667,"lon":25.75,"site_type":"csn"},{"site_name":"Danube valley between Neuburg and Ingolstadt","id":9441,"lat":48.75,"lon":11.15,"site_type":"csn"},{"site_name":"Khanchali Lake","id":18579,"lat":41.283,"lon":43.55,"site_type":"csn"},{"site_name":"Bezavona Classified Forest","id":6566,"lat":-16.95,"lon":48.967,"site_type":"csn"},{"site_name":"Kumdykol-Zharlykol Lake System","id":22275,"lat":50.583,"lon":70.883,"site_type":"csn"},{"site_name":"River Rhone: Geneva to Verbois reservoir","id":3269,"lat":46.183,"lon":6.1,"site_type":"csn"},{"site_name":"Budats'kyj lyman","id":2084,"lat":46,"lon":30.25,"site_type":"csn"},{"site_name":"Bassin d'Arcachon et Banc d'Arguin","id":2157,"lat":44.667,"lon":-1.117,"site_type":"csn"},{"site_name":"South Luangwa National Park","id":7195,"lat":-13.033,"lon":31.567,"site_type":"csn"},{"site_name":"Uzdin-Idvor-Sakule","id":50316,"lat":45.209,"lon":20.492,"site_type":"csn"},{"site_name":"Strandzha","id":434,"lat":42.072,"lon":27.648,"site_type":"csn"},{"site_name":"Sarykopa Lake System","id":21918,"lat":50.217,"lon":64.133,"site_type":"csn"},{"site_name":"Basse Vallée de la Durance","id":2342,"lat":43.8,"lon":5.2,"site_type":"csn"},{"site_name":"Basse vallée du Var","id":2350,"lat":43.767,"lon":7.2,"site_type":"csn"},{"site_name":"Basses Vallées Angevines","id":2387,"lat":47.567,"lon":-0.467,"site_type":"csn"},{"site_name":"Båtafjorden fjord","id":908,"lat":57.246,"lon":12.137,"site_type":"csn"},{"site_name":"Bay of Lundåkrabukten","id":888,"lat":55.817,"lon":12.918,"site_type":"csn"},{"site_name":"Béda-Karapancsa","id":1408,"lat":45.933,"lon":18.767,"site_type":"csn"},{"site_name":"Béli River","id":6023,"lat":14.967,"lon":-0.417,"site_type":"csn"},{"site_name":"Berlenga and Farilhões islands","id":369,"lat":39.45,"lon":-9.517,"site_type":"csn"},{"site_name":"Kultansor and Tatysor Lakes","id":19945,"lat":49.767,"lon":71.467,"site_type":"csn"},{"site_name":"Hardangervidda","id":3170,"lat":60.2,"lon":7.617,"site_type":"csn"},{"site_name":"Vilsandi archipelago","id":265,"lat":58.35,"lon":21.9,"site_type":"csn"},{"site_name":"Contendas","id":19704,"lat":38.65,"lon":-27.083,"site_type":"csn"},{"site_name":"Uzunlars'ke lake","id":2076,"lat":45.333,"lon":36.25,"site_type":"csn"},{"site_name":"Teici and Pelecare bogs","id":303,"lat":56.583,"lon":26.45,"site_type":"csn"},{"site_name":"Isle of Man Sea Cliffs","id":2703,"lat":54.097,"lon":-4.772,"site_type":"csn"},{"site_name":"Ria de Aveiro","id":364,"lat":40.7,"lon":-8.667,"site_type":"csn"},{"site_name":"Alfsee","id":3492,"lat":52.483,"lon":7.967,"site_type":"csn"},{"site_name":"Coastal areas of eastern Gotland island","id":857,"lat":58.35,"lon":18.8,"site_type":"csn"},{"site_name":"Ibis Protected Area","id":20772,"lat":33.514,"lon":36.288,"site_type":"csn"},{"site_name":"Arjuzanx","id":2178,"lat":44.017,"lon":-0.867,"site_type":"csn"},{"site_name":"Barrage de Boughzoul","id":6170,"lat":35.633,"lon":2.833,"site_type":"csn"},{"site_name":"Amanos mountains","id":820,"lat":36.817,"lon":36.283,"site_type":"csn"},{"site_name":"The northern part of the Curonian Lagoon","id":221,"lat":55.933,"lon":20.9,"site_type":"csn"},{"site_name":"Embouchure Oued Loukkos: Tetouan","id":50337,"lat":35.15,"lon":-6.18,"site_type":"csn"},{"site_name":"Puck Bay","id":3259,"lat":54.567,"lon":18.617,"site_type":"csn"},{"site_name":"Polderkomplex","id":700,"lat":51.25,"lon":3.217,"site_type":"csn"},{"site_name":"Mietoistenlahti bay","id":1289,"lat":60.6,"lon":21.817,"site_type":"csn"},{"site_name":"Miangaran marshes: Bondoun marsh","id":50332,"lat":31.492,"lon":49.57,"site_type":"csn"},{"site_name":"Etangs Montpellierains","id":2291,"lat":43.533,"lon":3.967,"site_type":"csn"},{"site_name":"Musandam islands","id":8215,"lat":26.217,"lon":56.483,"site_type":"csn"},{"site_name":"Bistreţ","id":2946,"lat":43.856,"lon":23.514,"site_type":"csn"},{"site_name":"Björn archipelago","id":900,"lat":60.61,"lon":17.824,"site_type":"csn"},{"site_name":"Bjørnøya (Bear Island)","id":3188,"lat":74.45,"lon":19.05,"site_type":"csn"},{"site_name":"Blahniţa","id":481,"lat":44.433,"lon":22.628,"site_type":"csn"},{"site_name":"Blockland - lower Wümme valley - Westliches Hollerland","id":3440,"lat":53.133,"lon":8.833,"site_type":"csn"},{"site_name":"Blyde river canyon","id":7083,"lat":-24.667,"lon":30.833,"site_type":"csn"},{"site_name":"Bodanrück and Mindelsee","id":9368,"lat":47.75,"lon":9.017,"site_type":"csn"},{"site_name":"Bogs and heathlands of the WestmÃ¼nsterland","id":3422,"lat":52.167,"lon":6.9,"site_type":"csn"},{"site_name":"Borbollón reservoir","id":1722,"lat":40.167,"lon":-6.583,"site_type":"csn"},{"site_name":"Borgarfjördur","id":504,"lat":64.5,"lon":-22,"site_type":"csn"},{"site_name":"Borsodi-Mezőség","id":1407,"lat":47.75,"lon":20.8,"site_type":"csn"},{"site_name":"West Coast of Benbecula","id":2705,"lat":57.433,"lon":-7.383,"site_type":"csn"},{"site_name":"Nagymagocs Ret. Legelo","id":50194,"lat":46.514,"lon":20.379,"site_type":"csn"},{"site_name":"Shaglyteniz Lake and marshes","id":21915,"lat":54.1,"lon":69.867,"site_type":"csn"},{"site_name":"San Pedro mountain range","id":1736,"lat":39.333,"lon":-6.75,"site_type":"csn"},{"site_name":"Lower reaches of River Weser, embanked area","id":3466,"lat":53.433,"lon":8.5,"site_type":"csn"},{"site_name":"Umm al-Qamari","id":8278,"lat":18.983,"lon":41.1,"site_type":"csn"},{"site_name":"Buchan Ness to Collieston Coast","id":2433,"lat":57.44,"lon":-1.812,"site_type":"csn"},{"site_name":"Black Sea Coast: Batumi - Kobuleti","id":50526,"lat":41.728,"lon":41.728,"site_type":"csn"},{"site_name":"Estuaire de la Charente","id":2354,"lat":45.95,"lon":-1,"site_type":"csn"},{"site_name":"Lake Zuidlaardermeer and Onnerpolder","id":1231,"lat":53.133,"lon":6.683,"site_type":"csn"},{"site_name":"Poole Harbour","id":2576,"lat":50.7,"lon":-2.028,"site_type":"csn"},{"site_name":"Barotse flood-plain","id":7182,"lat":-15.283,"lon":23.033,"site_type":"csn"},{"site_name":"Omulew and Plodownica Rivers Valleys","id":985,"lat":53.2,"lon":21.333,"site_type":"csn"},{"site_name":"Braţul Borcea","id":24418,"lat":44.332,"lon":27.811,"site_type":"csn"},{"site_name":"Bråviken - Hävringe","id":21949,"lat":58.562,"lon":17.167,"site_type":"csn"},{"site_name":"Breidafjördur","id":509,"lat":65.317,"lon":-23,"site_type":"csn"},{"site_name":"Brozas-Membrío","id":1734,"lat":39.667,"lon":-6.833,"site_type":"csn"},{"site_name":"Burigi - Biharamulo Game Reserves","id":6977,"lat":-2.25,"lon":31.25,"site_type":"csn"},{"site_name":"BÃ¼yÃ¼k Menderes delta","id":760,"lat":37.533,"lon":27.183,"site_type":"csn"},{"site_name":"Büyükçekmece lake","id":740,"lat":41.083,"lon":28.533,"site_type":"csn"},{"site_name":"Cádiz bay","id":1859,"lat":36.583,"lon":-6.333,"site_type":"csn"},{"site_name":"Campo Arañuelo-Valdecañas reservoir","id":1726,"lat":39.883,"lon":-5.267,"site_type":"csn"},{"site_name":"Samica Valley","id":22092,"lat":52.55,"lon":16.767,"site_type":"csn"},{"site_name":"Cheghakor marsh","id":8128,"lat":31.833,"lon":50.833,"site_type":"csn"},{"site_name":"Tsimanampetsotsa National Park","id":6590,"lat":-24.117,"lon":43.8,"site_type":"csn"},{"site_name":"Barr al Hikman","id":8230,"lat":20.633,"lon":58.433,"site_type":"csn"},{"site_name":"Barrage d'Artix et Saligue du Gave de Pau","id":2171,"lat":43.367,"lon":-0.533,"site_type":"csn"},{"site_name":"Uccellina mountains, Trappola marshes and Ombrone mouth","id":2766,"lat":42.633,"lon":11,"site_type":"csn"},{"site_name":"Zuvintas Biosphere Reserve","id":214,"lat":54.467,"lon":23.533,"site_type":"csn"},{"site_name":"Farasan Islands","id":8290,"lat":16.75,"lon":42,"site_type":"csn"},{"site_name":"Alyki Angelochoriou lagoon (Megalou Emvolou)","id":1004,"lat":40.483,"lon":22.817,"site_type":"csn"},{"site_name":"Terenkol Lake","id":22053,"lat":54.4,"lon":69.208,"site_type":"csn"},{"site_name":"River Sesia heronries","id":2867,"lat":45.4,"lon":8.383,"site_type":"csn"},{"site_name":"Fuente de Piedra, Gosque and Campillos lakes","id":1875,"lat":37.167,"lon":-4.75,"site_type":"csn"},{"site_name":"Springbokkamp Pan","id":50705,"lat":-29.11,"lon":24.636,"site_type":"csn"},{"site_name":"Dorudsan dam","id":8133,"lat":30.25,"lon":52.333,"site_type":"csn"},{"site_name":"Shalkar Lake","id":22007,"lat":50.55,"lon":51.667,"site_type":"csn"},{"site_name":"Paeen Rudposht Ab-bandan","id":50314,"lat":37.211,"lon":50.001,"site_type":"csn"},{"site_name":"Campo de Argañán","id":1935,"lat":40.5,"lon":-6.667,"site_type":"csn"},{"site_name":"Cap Saint André Forest and Wetlands","id":6549,"lat":-16.267,"lon":44.717,"site_type":"csn"},{"site_name":"Çavusçu lake","id":800,"lat":38.35,"lon":31.867,"site_type":"csn"},{"site_name":"De Hoop Nature Reserve","id":7173,"lat":-34.433,"lon":20.483,"site_type":"csn"},{"site_name":"Lebna reservoir","id":6929,"lat":36.7,"lon":10.933,"site_type":"csn"},{"site_name":"Delili - Garajabatyr","id":22120,"lat":37.539,"lon":54.453,"site_type":"csn"},{"site_name":"Nowruzlu and Ghazanlu","id":8073,"lat":36.917,"lon":46.167,"site_type":"csn"},{"site_name":"Lake Ohrid","id":2900,"lat":41,"lon":20.75,"site_type":"csn"},{"site_name":"St Kilda","id":2603,"lat":57.816,"lon":-8.58,"site_type":"csn"},{"site_name":"Tarkhankuts'kyj peninsula","id":2095,"lat":45.417,"lon":32.633,"site_type":"csn"},{"site_name":"Deelpan","id":50082,"lat":-29.179,"lon":25.755,"site_type":"csn"},{"site_name":"Val de Chiers et environs de Spincourt","id":2277,"lat":49.4,"lon":5.633,"site_type":"csn"},{"site_name":"La Dombes","id":2395,"lat":46.033,"lon":5.017,"site_type":"csn"},{"site_name":"Coast and lagoons of Western Pomerania","id":9118,"lat":54.433,"lon":12.9,"site_type":"csn"},{"site_name":"Lake Shkodra (Lake Scadar)","id":2899,"lat":42.167,"lon":19.333,"site_type":"csn"},{"site_name":"Sahb al Majnoun","id":6504,"lat":32.117,"lon":-7.75,"site_type":"csn"},{"site_name":"Murta dam","id":372,"lat":38.383,"lon":-8.7,"site_type":"csn"},{"site_name":"Island of Usedom","id":3380,"lat":53.933,"lon":14.017,"site_type":"csn"},{"site_name":"Ghidma","id":6959,"lat":33.433,"lon":8.8,"site_type":"csn"},{"site_name":"Ertholmene east of Bornholm","id":3059,"lat":55.317,"lon":15.183,"site_type":"csn"},{"site_name":"Wexford Harbour and Slobs","id":612,"lat":52.317,"lon":-6.433,"site_type":"csn"},{"site_name":"Texel: Schorren and Zeeburg","id":1180,"lat":53.133,"lon":4.9,"site_type":"csn"},{"site_name":"Lake Mitrikou (Ismarida)","id":988,"lat":40.967,"lon":25.283,"site_type":"csn"},{"site_name":"River Blackwater callows","id":603,"lat":52.15,"lon":-8.05,"site_type":"csn"},{"site_name":"Irbe strait","id":350,"lat":57.783,"lon":21.85,"site_type":"csn"},{"site_name":"Irbe strait","id":9016,"lat":57.817,"lon":21.85,"site_type":"csn"},{"site_name":"un-named sandbank","id":50414,"lat":-6.167,"lon":35.75,"site_type":"csn"},{"site_name":"Hamford Water","id":2488,"lat":51.886,"lon":1.236,"site_type":"csn"},{"site_name":"Estuaire de la Bidassoa et Baie de Fontarabie","id":2176,"lat":43.4,"lon":-1.7,"site_type":"csn"},{"site_name":"Northern lower Jordan valley","id":8177,"lat":32.417,"lon":35.55,"site_type":"csn"},{"site_name":"South-west London Waterbodies","id":2600,"lat":51.449,"lon":-0.51,"site_type":"csn"},{"site_name":"Schuch'i lakes","id":18778,"lat":55.25,"lon":77.733,"site_type":"csn"},{"site_name":"Chad Basin National Park: Chingurmi - Duguma Sector","id":6737,"lat":11.75,"lon":14.25,"site_type":"csn"},{"site_name":"Chelmsford Nature Reserve","id":7120,"lat":-27.95,"lon":29.95,"site_type":"csn"},{"site_name":"Cíes islands","id":1643,"lat":42.25,"lon":-8.883,"site_type":"csn"},{"site_name":"Çıldır Lake","id":827,"lat":41.017,"lon":43.233,"site_type":"csn"},{"site_name":"Ciocăneşti - Dunăre","id":473,"lat":44.173,"lon":27.076,"site_type":"csn"},{"site_name":"Coastal areas of eastern Ãland island","id":853,"lat":56.658,"lon":16.732,"site_type":"csn"},{"site_name":"Coastal cliffs between Cape Enderrocat and Cala Pí","id":1891,"lat":39.5,"lon":2.75,"site_type":"csn"},{"site_name":"Khawr Hassan","id":8242,"lat":17.033,"lon":54.383,"site_type":"csn"},{"site_name":"Lake Victoria: Bunda Bay","id":7005,"lat":-2.25,"lon":33.667,"site_type":"csn"},{"site_name":"Nyl river flood-plain","id":7082,"lat":-24.65,"lon":28.7,"site_type":"csn"},{"site_name":"Gravel pits Krauchenwies-Zielfingen","id":9416,"lat":48.05,"lon":9.25,"site_type":"csn"},{"site_name":"Bihar Plain","id":1414,"lat":47.1,"lon":21.433,"site_type":"csn"},{"site_name":"Etangs d'Argonne","id":2218,"lat":48.967,"lon":4.933,"site_type":"csn"},{"site_name":"Sebkha d'Oran","id":6173,"lat":35.367,"lon":-0.8,"site_type":"csn"},{"site_name":"El Moro marshes","id":1915,"lat":39.583,"lon":-0.25,"site_type":"csn"},{"site_name":"Shannon and Fergus Estuaries","id":588,"lat":52.667,"lon":-9.067,"site_type":"csn"},{"site_name":"Lakes Alemaya and Adele","id":6251,"lat":9.4,"lon":42,"site_type":"csn"},{"site_name":"Vlieland","id":1182,"lat":53.283,"lon":4.983,"site_type":"csn"},{"site_name":"Lac et marais du Bourget","id":2407,"lat":45.8,"lon":5.767,"site_type":"csn"},{"site_name":"Kalmthoutse Heide","id":707,"lat":51.4,"lon":4.433,"site_type":"csn"},{"site_name":"Merja Daoura et Sidi Mohammed Ben Mansour; Kenitra","id":50514,"lat":34.63,"lon":-6.3,"site_type":"csn"},{"site_name":"Fala Flow","id":2469,"lat":55.817,"lon":-2.907,"site_type":"csn"},{"site_name":"Veckholm:Ekholmen","id":50448,"lat":59.51,"lon":17.38,"site_type":"csn"},{"site_name":"Busko lake","id":50570,"lat":43.667,"lon":18.385,"site_type":"csn"},{"site_name":"Lake Kornai","id":50443,"lat":42.52,"lon":58.2,"site_type":"csn"},{"site_name":"Insko Site","id":918,"lat":53.4,"lon":15.5,"site_type":"csn"},{"site_name":"Karadaz'kyj Nature Reserve","id":2048,"lat":45,"lon":35.25,"site_type":"csn"},{"site_name":"Strandstuguviken","id":21952,"lat":58.71,"lon":17.125,"site_type":"csn"},{"site_name":"Cogul-Alfés steppes","id":1793,"lat":41.5,"lon":0.667,"site_type":"csn"},{"site_name":"Çol lake and Çalikdüzü","id":807,"lat":39.317,"lon":31.85,"site_type":"csn"},{"site_name":"Confluent des vallées de la Meuse et de la Chiers","id":2223,"lat":49.633,"lon":4.133,"site_type":"csn"},{"site_name":"Ãorak lake","id":793,"lat":37.667,"lon":29.767,"site_type":"csn"},{"site_name":"Csanád Pusztas","id":1419,"lat":46.317,"lon":20.717,"site_type":"csn"},{"site_name":"Cuelei","id":6008,"lat":-15.7,"lon":17.45,"site_type":"csn"},{"site_name":"Bilogir'ya","id":2096,"lat":45.15,"lon":34.1,"site_type":"csn"},{"site_name":"Cursul Dunării - Baziaş - Porţile de Fier","id":462,"lat":44.648,"lon":21.923,"site_type":"csn"},{"site_name":"Dăbuleni - Grinduri","id":24423,"lat":43.726,"lon":24.158,"site_type":"csn"},{"site_name":"Glynanyi island","id":161,"lat":39.95,"lon":49.517,"site_type":"csn"},{"site_name":"Penny Park","id":7138,"lat":-30.5,"lon":29.483,"site_type":"csn"},{"site_name":"Embouchure Oued Moulouya","id":6484,"lat":35.1,"lon":-2.367,"site_type":"csn"},{"site_name":"Marine waters along the continental part of Lithuania","id":220,"lat":55.933,"lon":20.9,"site_type":"csn"},{"site_name":"Tyligul's'kyj lyman","id":2047,"lat":46.817,"lon":31,"site_type":"csn"},{"site_name":"Uzava lowland","id":337,"lat":57.15,"lon":21.517,"site_type":"csn"},{"site_name":"Lake Eyasi","id":6986,"lat":-3.667,"lon":35.167,"site_type":"csn"},{"site_name":"Aland-Elbe lowlands","id":3403,"lat":52.983,"lon":11.7,"site_type":"csn"},{"site_name":"Abernethy Forest","id":2414,"lat":57.219,"lon":-3.631,"site_type":"csn"},{"site_name":"Marais salants de Noirmoutier","id":2388,"lat":46.983,"lon":-2.267,"site_type":"csn"},{"site_name":"Logone Gana","id":50704,"lat":11.534,"lon":15.166,"site_type":"csn"},{"site_name":"Deben Estuary","id":2453,"lat":52.042,"lon":1.344,"site_type":"csn"},{"site_name":"Parumer See, Sumpfsee, Inselsee","id":9127,"lat":53.767,"lon":12.133,"site_type":"csn"},{"site_name":"Dayette Morsli - Plaine de Remila (Dayet El Ferd)","id":6171,"lat":35.45,"lon":0.383,"site_type":"csn"},{"site_name":"Vestamager and adjacent sea area","id":3020,"lat":55.583,"lon":12.533,"site_type":"csn"},{"site_name":"Chobe National Park","id":6045,"lat":-18.5,"lon":24.5,"site_type":"csn"},{"site_name":"El Houareb reservoir","id":6940,"lat":35.583,"lon":9.9,"site_type":"csn"},{"site_name":"Khawr Ghawi","id":8237,"lat":18.567,"lon":56.633,"site_type":"csn"},{"site_name":"Band Ali Khan complex: Shokr Abad","id":50563,"lat":35.02,"lon":51.39,"site_type":"csn"},{"site_name":"Hoveyzeh Surroundings Mahmieh: Eghbali","id":50569,"lat":31.296,"lon":47.949,"site_type":"csn"},{"site_name":"Haur Al Suwayqiyah","id":8040,"lat":32.7,"lon":45.917,"site_type":"csn"},{"site_name":"Daudmannsøyra","id":3196,"lat":78.25,"lon":13,"site_type":"csn"},{"site_name":"Defileul Inferior al Mureşului","id":2949,"lat":45.985,"lon":21.981,"site_type":"csn"},{"site_name":"DÃ©troit de Bonifaccio et Iles Lavezzi","id":2245,"lat":41.367,"lon":9.233,"site_type":"csn"},{"site_name":"Bangaga","id":50576,"lat":12.267,"lon":3.05,"site_type":"csn"},{"site_name":"Mochrum and Castle Lochs","id":2674,"lat":54.847,"lon":-4.661,"site_type":"csn"},{"site_name":"Rud-i-Jagin and Rud-i-Gabrik deltas","id":8164,"lat":25.583,"lon":58.333,"site_type":"csn"},{"site_name":"Col de l'Escrinet","id":2399,"lat":44.733,"lon":4.417,"site_type":"csn"},{"site_name":"Drawa River Site","id":22047,"lat":53.583,"lon":16,"site_type":"csn"},{"site_name":"Las Contiendas mountain range","id":1963,"lat":38,"lon":-6.833,"site_type":"csn"},{"site_name":"Farne Islands","id":2470,"lat":55.631,"lon":-1.624,"site_type":"csn"},{"site_name":"Peschanokoledinskaya","id":24262,"lat":55.933,"lon":62.8,"site_type":"csn"},{"site_name":"Cagliari wetlands","id":2824,"lat":39.183,"lon":9.15,"site_type":"csn"},{"site_name":"Sabkhat al-Fasl lagoons","id":8261,"lat":27.067,"lon":49.492,"site_type":"csn"},{"site_name":"Barrage Moussa","id":50152,"lat":36.147,"lon":10.309,"site_type":"csn"},{"site_name":"Aktas lake","id":826,"lat":41.2,"lon":43.217,"site_type":"csn"},{"site_name":"Ziemelu bogs","id":302,"lat":57.967,"lon":24.9,"site_type":"csn"},{"site_name":"North Pangalanes wetlands","id":6573,"lat":-18.683,"lon":49.217,"site_type":"csn"},{"site_name":"Ras al Hadd","id":8229,"lat":22.533,"lon":59.767,"site_type":"csn"},{"site_name":"Turkmen Bay","id":20718,"lat":39.838,"lon":53.759,"site_type":"csn"},{"site_name":"Shaumari","id":8195,"lat":31.757,"lon":36.69,"site_type":"csn"},{"site_name":"Ameland: Duinen-Oerd","id":1186,"lat":53.467,"lon":5.75,"site_type":"csn"},{"site_name":"Loch Eye","id":20782,"lat":57.791,"lon":-3.966,"site_type":"csn"},{"site_name":"Exe Estuary","id":2467,"lat":50.645,"lon":-3.443,"site_type":"csn"},{"site_name":"Ampasindava  Wetlands and Forest Complex","id":6533,"lat":-13.867,"lon":48.067,"site_type":"csn"},{"site_name":"Sebkhet Ez-Zemoul","id":6167,"lat":35.9,"lon":6.55,"site_type":"csn"},{"site_name":"Ceskobudejovicke rybniky ponds","id":18767,"lat":49.033,"lon":14.367,"site_type":"csn"},{"site_name":"Einswarder Plate / Tegeler Plate","id":9146,"lat":53.517,"lon":8.517,"site_type":"csn"},{"site_name":"Douing","id":50462,"lat":11.096,"lon":14.969,"site_type":"csn"},{"site_name":"Black Sea","id":2948,"lat":44.676,"lon":29.142,"site_type":"csn"},{"site_name":"Dôda","id":6155,"lat":12.083,"lon":42.333,"site_type":"csn"},{"site_name":"Donau-Auen and Donau-Ried: Höchstädt - Donauwörth","id":3363,"lat":48.533,"lon":10.65,"site_type":"csn"},{"site_name":"Dosse-Jäglitz lowlands","id":9205,"lat":52.817,"lon":12.333,"site_type":"csn"},{"site_name":"Douz Laâla","id":6957,"lat":33.467,"lon":8.967,"site_type":"csn"},{"site_name":"Dråby Vig and Buksør Odde","id":3044,"lat":56.833,"lon":8.833,"site_type":"csn"},{"site_name":"Drömling (Sachsen-Anhalt)","id":3404,"lat":52.467,"lon":11.117,"site_type":"csn"},{"site_name":"Dümmer","id":3333,"lat":52.5,"lon":8.333,"site_type":"csn"},{"site_name":"Dunăre - Canarale - Hârşova","id":24409,"lat":44.673,"lon":27.919,"site_type":"csn"},{"site_name":"Dunăre - Olteniţa","id":24428,"lat":44.059,"lon":26.493,"site_type":"csn"},{"site_name":"Dunăre - Ostroave","id":24430,"lat":44.188,"lon":27.559,"site_type":"csn"},{"site_name":"Dunărea Veche (Braţul Măcin)","id":24398,"lat":44.948,"lon":28.122,"site_type":"csn"},{"site_name":"River Spey - Insh Marshes","id":2586,"lat":57.095,"lon":-3.977,"site_type":"csn"},{"site_name":"Lake Itasy","id":6579,"lat":-19.067,"lon":46.783,"site_type":"csn"},{"site_name":"Mare de Guiwana","id":50460,"lat":13.516,"lon":2.116,"site_type":"csn"},{"site_name":"Nosy Be and satellite islands","id":6532,"lat":-13.333,"lon":48.25,"site_type":"csn"},{"site_name":"Rezabinec pond","id":38,"lat":49.25,"lon":14.083,"site_type":"csn"},{"site_name":"Diaccia Botrona","id":2765,"lat":42.783,"lon":10.917,"site_type":"csn"},{"site_name":"Cap Fagnet","id":2264,"lat":49.8,"lon":0.417,"site_type":"csn"},{"site_name":"Baie de Goulven","id":2215,"lat":48.65,"lon":-4.267,"site_type":"csn"},{"site_name":"Horeh Bamdej","id":8123,"lat":31.75,"lon":48.6,"site_type":"csn"},{"site_name":"Benfleet and Southend Marshes","id":2426,"lat":51.517,"lon":0.667,"site_type":"csn"},{"site_name":"Krugersdrift Dam","id":50235,"lat":-28.868,"lon":25.974,"site_type":"csn"},{"site_name":"Pools of Florence plain","id":2853,"lat":43.8,"lon":11.067,"site_type":"csn"},{"site_name":"Arraiolos","id":19681,"lat":38.783,"lon":-8,"site_type":"csn"},{"site_name":"Eastern False Bay mountains","id":7161,"lat":-33.783,"lon":19.133,"site_type":"csn"},{"site_name":"Eastern shore of Lake MÃ¼ritz, Grosser Schwerin and Steinhorn","id":3384,"lat":53.35,"lon":12.9,"site_type":"csn"},{"site_name":"Ecseg Pusztas of Dévaványa","id":1396,"lat":47.167,"lon":21.15,"site_type":"csn"},{"site_name":"El Escorial-San MartÃ­n de Valdeiglesias","id":1690,"lat":40.5,"lon":-4.167,"site_type":"csn"},{"site_name":"El Pardo-ViÃ±uelas","id":1692,"lat":40.583,"lon":-3.75,"site_type":"csn"},{"site_name":"End of Lake Constance and river Rhine until BibermÃ¼hle","id":3262,"lat":47.633,"lon":8.817,"site_type":"csn"},{"site_name":"Kamfers Dam","id":7099,"lat":-28.733,"lon":24.767,"site_type":"csn"},{"site_name":"Canal de Guadaira","id":50621,"lat":40.3,"lon":-3.75,"site_type":"csn"},{"site_name":"Ngorongoro Conservation Area","id":6976,"lat":-3.25,"lon":35.5,"site_type":"csn"},{"site_name":"Lake Prespa","id":127,"lat":40.817,"lon":21,"site_type":"csn"},{"site_name":"Upper Galilee","id":50374,"lat":33.02,"lon":35.42,"site_type":"csn"},{"site_name":"Rock of Gibraltar","id":17,"lat":36.142,"lon":-5.346,"site_type":"csn"},{"site_name":"Aktubek","id":20646,"lat":50.217,"lon":69.5,"site_type":"csn"},{"site_name":"Gouske","id":50598,"lat":13.516,"lon":2.116,"site_type":"csn"},{"site_name":"Kugurluj and Kartal lakes","id":2065,"lat":45.283,"lon":28.65,"site_type":"csn"},{"site_name":"Sermilinnguaq","id":61,"lat":65.667,"lon":-52.617,"site_type":"csn"},{"site_name":"Yatata","id":403,"lat":43.188,"lon":27.733,"site_type":"csn"},{"site_name":"Camargue","id":2327,"lat":43.517,"lon":4.6,"site_type":"csn"},{"site_name":"Malpica island (River Tagus)","id":1952,"lat":39.917,"lon":-4.567,"site_type":"csn"},{"site_name":"Helnes Bugt","id":50201,"lat":55.13,"lon":10.13,"site_type":"csn"},{"site_name":"Tyulen'i (Seal) Islands","id":21941,"lat":44.917,"lon":50.367,"site_type":"csn"},{"site_name":"Tubli Bay","id":8017,"lat":26.173,"lon":50.572,"site_type":"csn"},{"site_name":"Pryp'yat' river valley","id":2073,"lat":51.867,"lon":25.383,"site_type":"csn"},{"site_name":"Tarout bay: Alawaymiyah & Safwa Mangroves","id":50451,"lat":26.67,"lon":50.17,"site_type":"csn"},{"site_name":"Aguelmane n'Tifounassine","id":6498,"lat":33.15,"lon":-5.1,"site_type":"csn"},{"site_name":"Polder Mastenbroek","id":50047,"lat":52.571,"lon":6.018,"site_type":"csn"},{"site_name":"Lake Techirghiol","id":447,"lat":44.026,"lon":28.591,"site_type":"csn"},{"site_name":"Enhjørningens Dal and Pingel Dal","id":53,"lat":71.617,"lon":-23.117,"site_type":"csn"},{"site_name":"Eo river estuary-Barayo beach-Ría de Foz","id":1648,"lat":43.55,"lon":-7.067,"site_type":"csn"},{"site_name":"Estuaire de la Gironde : marais du Nord Médoc","id":2179,"lat":45.433,"lon":-1,"site_type":"csn"},{"site_name":"Etangs de la Woëvre: la Chaussée","id":2273,"lat":49.017,"lon":5.817,"site_type":"csn"},{"site_name":"Etangs de la Woëvre: lac de Madine","id":2272,"lat":48.9,"lon":5.733,"site_type":"csn"},{"site_name":"Etangs de Sologne: St Viatre, Marcilly-en-Gault et forêt de Bruadan","id":2237,"lat":47.483,"lon":1.817,"site_type":"csn"},{"site_name":"Mountain range and saltpans at Cabo de Gata","id":1835,"lat":36.833,"lon":-2.083,"site_type":"csn"},{"site_name":"Radomyshl's'ke Game Reserve","id":2118,"lat":50.533,"lon":29.433,"site_type":"csn"},{"site_name":"Heden","id":55,"lat":71,"lon":-24.117,"site_type":"csn"},{"site_name":"Pantani di Vendicari e di Capo Passero","id":2838,"lat":36.733,"lon":15.05,"site_type":"csn"},{"site_name":"Bogdasheni Lake","id":18583,"lat":41.217,"lon":43.7,"site_type":"csn"},{"site_name":"Greater Ingwangwana river","id":7135,"lat":-29.95,"lon":29.45,"site_type":"csn"},{"site_name":"Polder Arkemheen","id":1253,"lat":52.233,"lon":5.433,"site_type":"csn"},{"site_name":"Ho Bugt meadows","id":2969,"lat":55.6,"lon":8.317,"site_type":"csn"},{"site_name":"Snake island","id":2134,"lat":45.25,"lon":30.2,"site_type":"csn"},{"site_name":"Hotamis marshes","id":750,"lat":37.55,"lon":33.067,"site_type":"csn"},{"site_name":"Mecklenburgische Schweiz","id":9130,"lat":53.717,"lon":12.733,"site_type":"csn"},{"site_name":"Shats'ki lakes","id":2035,"lat":51.55,"lon":23.817,"site_type":"csn"},{"site_name":"Jerez de los Caballeros dehesas","id":1744,"lat":38.25,"lon":-6.833,"site_type":"csn"},{"site_name":"Garadashly - Ekerem","id":20719,"lat":37.973,"lon":53.825,"site_type":"csn"},{"site_name":"Killough Bay","id":2500,"lat":54.255,"lon":-5.635,"site_type":"csn"},{"site_name":"Sebkha Zima","id":6505,"lat":32.083,"lon":-8.667,"site_type":"csn"},{"site_name":"Torgelower See and Varchentiner See","id":9141,"lat":53.567,"lon":12.8,"site_type":"csn"},{"site_name":"Haur Om am Nyaj","id":8052,"lat":31.75,"lon":47.417,"site_type":"csn"},{"site_name":"Évora plains","id":384,"lat":38.483,"lon":-7.883,"site_type":"csn"},{"site_name":"Eyjavatn-Fridmundarvötn","id":515,"lat":65.25,"lon":-19.7,"site_type":"csn"},{"site_name":"FanÃ¸","id":3062,"lat":55.433,"lon":8.4,"site_type":"csn"},{"site_name":"Farmlands near TÃ¼tzpatz","id":9142,"lat":53.733,"lon":13.083,"site_type":"csn"},{"site_name":"Färnebofjärden","id":870,"lat":60.2,"lon":16.785,"site_type":"csn"},{"site_name":"Ferjubakkaflói-Nordurá","id":505,"lat":64.6,"lon":-21.667,"site_type":"csn"},{"site_name":"Ferrolterra-ValdoviÃ±o coast","id":1951,"lat":43.6,"lon":-8.2,"site_type":"csn"},{"site_name":"Fiilsø","id":2978,"lat":55.7,"lon":8.25,"site_type":"csn"},{"site_name":"Finchaa and Chomen swamps","id":6254,"lat":9.567,"lon":37.35,"site_type":"csn"},{"site_name":"Flensburger Innen- and Aussenförde","id":3297,"lat":54.867,"lon":9.6,"site_type":"csn"},{"site_name":"Flood plain of Tiszaalpár","id":1404,"lat":46.8,"lon":20,"site_type":"csn"},{"site_name":"FochteloÃ«rveen and Lake Esmeer","id":1260,"lat":53.017,"lon":6.4,"site_type":"csn"},{"site_name":"FÃ¶glÃ¶ southern archipelago","id":1380,"lat":59.867,"lon":20.583,"site_type":"csn"},{"site_name":"Forêt de Châtillon et environs","id":2185,"lat":47.767,"lon":4.733,"site_type":"csn"},{"site_name":"Forêt de Jugny","id":2183,"lat":47.567,"lon":4.75,"site_type":"csn"},{"site_name":"Franklin vlei","id":7136,"lat":-30.3,"lon":29.417,"site_type":"csn"},{"site_name":"Beysehir lake","id":765,"lat":37.767,"lon":31.517,"site_type":"csn"},{"site_name":"Tejo estuary","id":370,"lat":38.817,"lon":-8.933,"site_type":"csn"},{"site_name":"Rud-i-Shur, Rud-i-Shirin and Rud-i-Minab deltas","id":8161,"lat":27.133,"lon":56.8,"site_type":"csn"},{"site_name":"Gaasterland en Lemsterland","id":50044,"lat":52.869,"lon":5.568,"site_type":"csn"},{"site_name":"Kanibarazan","id":50205,"lat":36.59,"lon":45.46,"site_type":"csn"},{"site_name":"Tormos reservoir (La Sotonera)","id":1786,"lat":42.083,"lon":-0.65,"site_type":"csn"},{"site_name":"Ambavanankarana wetlands","id":6530,"lat":-13.117,"lon":48.767,"site_type":"csn"},{"site_name":"Aras River: Boralan - Aras Dam","id":50198,"lat":39.01,"lon":45.17,"site_type":"csn"},{"site_name":"Oderbruch","id":9220,"lat":52.633,"lon":14.45,"site_type":"csn"},{"site_name":"Fouriesburg - Bethlehem - Clarens","id":7112,"lat":-28.533,"lon":28.25,"site_type":"csn"},{"site_name":"Frégate island","id":6787,"lat":-4.583,"lon":55.933,"site_type":"csn"},{"site_name":"Furnas - Santo António","id":19720,"lat":38.55,"lon":-28.35,"site_type":"csn"},{"site_name":"Gâat Mahmoûdé","id":6640,"lat":16.417,"lon":-7.633,"site_type":"csn"},{"site_name":"Gabriel y GalÃ¡n reservoir","id":1721,"lat":40.267,"lon":-6.267,"site_type":"csn"},{"site_name":"Molochna river valley","id":2114,"lat":47.083,"lon":35.5,"site_type":"csn"},{"site_name":"Prat de Cabanes-Torreblanca","id":1820,"lat":40.233,"lon":0.2,"site_type":"csn"},{"site_name":"Dundrum Inner Bay","id":2459,"lat":54.263,"lon":-5.829,"site_type":"csn"},{"site_name":"Horse Island","id":2665,"lat":55.646,"lon":-4.842,"site_type":"csn"},{"site_name":"Odiel and Tinto marshes and Huelva coastal lagoons","id":1854,"lat":37.25,"lon":-6.833,"site_type":"csn"},{"site_name":"Estuaire de la Gironde : marais de la rive nord","id":2371,"lat":45.433,"lon":-0.8,"site_type":"csn"},{"site_name":"Khoor-e-Jaskekohneh","id":50709,"lat":32,"lon":54,"site_type":"csn"},{"site_name":"Various rivers","id":50615,"lat":30.833,"lon":50.667,"site_type":"csn"},{"site_name":"Zone humide de Zlalla","id":50657,"lat":33.483,"lon":8.9,"site_type":"csn"},{"site_name":"Mietkow reservoir","id":983,"lat":50.967,"lon":16.617,"site_type":"csn"},{"site_name":"North Sea north of the Wadden Sea","id":1196,"lat":53.333,"lon":5,"site_type":"csn"},{"site_name":"Klipvoor Dam","id":50700,"lat":-25.144,"lon":27.819,"site_type":"csn"},{"site_name":"Sabaki River Mouth","id":6409,"lat":-3.15,"lon":40.133,"site_type":"csn"},{"site_name":"Aguelmane Aberhane: Khenifra","id":50747,"lat":32.68,"lon":-5.52,"site_type":"csn"},{"site_name":"Bargerveen","id":1262,"lat":52.683,"lon":7.033,"site_type":"csn"},{"site_name":"Rangsdorfer See lowlands / Prierowsee","id":9218,"lat":52.25,"lon":13.45,"site_type":"csn"},{"site_name":"Midi - Al-Luhayyah","id":8334,"lat":16,"lon":42.833,"site_type":"csn"},{"site_name":"Iles Cerbicale","id":2246,"lat":41.55,"lon":9.35,"site_type":"csn"},{"site_name":"Kolon Lake","id":1395,"lat":46.767,"lon":19.317,"site_type":"csn"},{"site_name":"Changiz Gol marsh","id":50512,"lat":36.52,"lon":46.03,"site_type":"csn"},{"site_name":"Ili River Delta","id":20624,"lat":45.417,"lon":74.833,"site_type":"csn"},{"site_name":"Chafarinas Islands","id":1878,"lat":35.183,"lon":-2.433,"site_type":"csn"},{"site_name":"Gransee / Zehdenick / Schnelle Havel","id":9208,"lat":52.933,"lon":13.383,"site_type":"csn"},{"site_name":"Rhine flats Nonnenweier - Kehl","id":3555,"lat":48.45,"lon":7.767,"site_type":"csn"},{"site_name":"Karakaya Reservoir","id":9619,"lat":38.433,"lon":38.667,"site_type":"csn"},{"site_name":"Great Plain of the Koukdjuak","id":11312,"lat":66.171,"lon":-74,"site_type":"csn"},{"site_name":"Getterön","id":855,"lat":57.132,"lon":12.241,"site_type":"csn"},{"site_name":"Girdev Lake and Akdağlar","id":9603,"lat":36.583,"lon":29.617,"site_type":"csn"},{"site_name":"GjesvÃ¦rstappan","id":3148,"lat":71.167,"lon":25.333,"site_type":"csn"},{"site_name":"Glomstrup Vig, Agerø, Munkholm and Katholm Odde, Lindholm, and Rotholme","id":2956,"lat":56.667,"lon":8.583,"site_type":"csn"},{"site_name":"Göksu delta","id":768,"lat":36.3,"lon":33.983,"site_type":"csn"},{"site_name":"Golden Gate Highlands and Qwaqwa National Parks","id":7111,"lat":-28.517,"lon":28.667,"site_type":"csn"},{"site_name":"Golfe de Porto, presqu'île de Scandola et golfe de Galeria","id":2247,"lat":42.333,"lon":8.617,"site_type":"csn"},{"site_name":"Gräsö archipelago","id":902,"lat":60.433,"lon":18.654,"site_type":"csn"},{"site_name":"Carmel coast","id":8174,"lat":32.55,"lon":34.917,"site_type":"csn"},{"site_name":"Cosmoledo atoll","id":6798,"lat":-9.7,"lon":47.567,"site_type":"csn"},{"site_name":"Erfenis Dam","id":50203,"lat":-28.521,"lon":26.798,"site_type":"csn"},{"site_name":"Zwin","id":701,"lat":51.333,"lon":3.35,"site_type":"csn"},{"site_name":"Kyzylkol Lake","id":19955,"lat":43.747,"lon":69.492,"site_type":"csn"},{"site_name":"Dyer Island Nature Reserve","id":7174,"lat":-34.683,"lon":19.417,"site_type":"csn"},{"site_name":"Karabogaz","id":20584,"lat":41.054,"lon":52.912,"site_type":"csn"},{"site_name":"Lake Oudegaasterbrekken","id":1239,"lat":52.983,"lon":5.517,"site_type":"csn"},{"site_name":"Durankulak Lake","id":401,"lat":43.665,"lon":28.548,"site_type":"csn"},{"site_name":"Hanság","id":1384,"lat":47.75,"lon":17.25,"site_type":"csn"},{"site_name":"Lower Tisza Valley","id":1398,"lat":46.25,"lon":20.167,"site_type":"csn"},{"site_name":"Chott Merouane et Oued Khrouf","id":6174,"lat":33.917,"lon":6.167,"site_type":"csn"},{"site_name":"Chott Boul","id":6639,"lat":16.567,"lon":-16.433,"site_type":"csn"},{"site_name":"Zholdyrbas Lake","id":20682,"lat":43.498,"lon":59.817,"site_type":"csn"},{"site_name":"Merja Zerga","id":6487,"lat":34.85,"lon":-6.267,"site_type":"csn"},{"site_name":"Moray Basin, Firths and Bays","id":2546,"lat":57.725,"lon":-4.039,"site_type":"csn"},{"site_name":"Tana River Delta","id":6412,"lat":-2.5,"lon":40.333,"site_type":"csn"},{"site_name":"Maros: Maroslele","id":50353,"lat":46.242,"lon":20.332,"site_type":"csn"},{"site_name":"Omgangsstauran","id":3146,"lat":70.917,"lon":28.5,"site_type":"csn"},{"site_name":"Natal Drakensberg Park","id":7123,"lat":-29.333,"lon":29.467,"site_type":"csn"},{"site_name":"Charcas de las Cienventana","id":50702,"lat":40.3,"lon":-3.75,"site_type":"csn"},{"site_name":"Armash fish-farm","id":3137,"lat":39.752,"lon":44.766,"site_type":"csn"},{"site_name":"GrÃ­msey","id":520,"lat":66.55,"lon":-18,"site_type":"csn"},{"site_name":"Groß Fullener Moor","id":3479,"lat":52.667,"lon":7.133,"site_type":"csn"},{"site_name":"GroÃer and Kleiner Jasmunder Bodden with Schmachter See and Nonnensee","id":9121,"lat":54.5,"lon":13.433,"site_type":"csn"},{"site_name":"Grosser Plöner See","id":3304,"lat":54.133,"lon":10.417,"site_type":"csn"},{"site_name":"Grünewalder Lauch - Pulsnitzniederung","id":9209,"lat":51.45,"lon":13.683,"site_type":"csn"},{"site_name":"Guernica estuary-Cape Ogoño","id":1663,"lat":43.367,"lon":-2.683,"site_type":"csn"},{"site_name":"Güllük Bay","id":792,"lat":37.183,"lon":27.583,"site_type":"csn"},{"site_name":"Gunjur-Kartong","id":50427,"lat":13.116,"lon":-16.766,"site_type":"csn"},{"site_name":"Haçli lake","id":823,"lat":39.017,"lon":42.3,"site_type":"csn"},{"site_name":"HÃ¦lavÃ­kurbjarg","id":512,"lat":66.467,"lon":-22.6,"site_type":"csn"},{"site_name":"Monach Islands","id":2542,"lat":57.523,"lon":-7.634,"site_type":"csn"},{"site_name":"Ichaboe Island","id":6715,"lat":-26.283,"lon":14.933,"site_type":"csn"},{"site_name":"Jabal Samhan","id":8239,"lat":17.2,"lon":54.917,"site_type":"csn"},{"site_name":"Aksuat Lake","id":22029,"lat":53.667,"lon":66.45,"site_type":"csn"},{"site_name":"Tanbi wetland complex","id":6350,"lat":13.417,"lon":-16.617,"site_type":"csn"},{"site_name":"Hanko western archipelago","id":1299,"lat":59.817,"lon":22.9,"site_type":"csn"},{"site_name":"Harrat al-Harrah","id":8253,"lat":31,"lon":38.833,"site_type":"csn"},{"site_name":"Zvanets","id":195,"lat":52.083,"lon":24.833,"site_type":"csn"},{"site_name":"Montagne d'Ambre National Park and Special Reserve","id":6524,"lat":-12.533,"lon":49.167,"site_type":"csn"},{"site_name":"Laukvikneset-Skallneset 1","id":50711,"lat":70.15,"lon":30.333,"site_type":"csn"},{"site_name":"Hefer valley","id":8176,"lat":32.45,"lon":34.933,"site_type":"csn"},{"site_name":"Tuscan Archipelago","id":2762,"lat":42.8,"lon":10.333,"site_type":"csn"},{"site_name":"River Chari","id":50475,"lat":10.768,"lon":15.904,"site_type":"csn"},{"site_name":"Swakoppoort dam","id":50582,"lat":-22.212,"lon":16.527,"site_type":"csn"},{"site_name":"Estuaire de la Gironde : marais du Blayais","id":2180,"lat":45.233,"lon":-0.633,"site_type":"csn"},{"site_name":"Lake Kobi","id":8072,"lat":36.95,"lon":45.5,"site_type":"csn"},{"site_name":"Waza Camp","id":50494,"lat":11.381,"lon":14.521,"site_type":"csn"},{"site_name":"Yesilirmak delta","id":817,"lat":41.283,"lon":36.933,"site_type":"csn"},{"site_name":"Harboøre Tange, Plet Enge & Gjeller Sø","id":2958,"lat":56.667,"lon":8.25,"site_type":"csn"},{"site_name":"Haur Al Abjiya and Umm Al Baram","id":8042,"lat":32.467,"lon":46.083,"site_type":"csn"},{"site_name":"Haur Al Hawizeh","id":8056,"lat":31.367,"lon":47.633,"site_type":"csn"},{"site_name":"Haur Lafta","id":8057,"lat":31.35,"lon":45.5,"site_type":"csn"},{"site_name":"Haur Sanniya","id":8051,"lat":31.917,"lon":46.8,"site_type":"csn"},{"site_name":"Haur Sarut","id":8044,"lat":32.317,"lon":46.767,"site_type":"csn"},{"site_name":"Haute Soule : ForÃªt d'Irraty, Organbidexka et Pic des Escaliers","id":2164,"lat":43.033,"lon":-1.05,"site_type":"csn"},{"site_name":"Haute SÃ»re/Ardenne mÃ©ridionale","id":736,"lat":49.733,"lon":5.467,"site_type":"csn"},{"site_name":"Hellwegbörde","id":3415,"lat":51.6,"lon":8.317,"site_type":"csn"},{"site_name":"HestgerdislÃ³n-HornafjardarfljÃ³t","id":536,"lat":64.2,"lon":-15.617,"site_type":"csn"},{"site_name":"Hindiya barrage","id":8039,"lat":32.7,"lon":44.283,"site_type":"csn"},{"site_name":"Lake Arpi","id":3136,"lat":41.061,"lon":43.624,"site_type":"csn"},{"site_name":"Lake Chew Bahir","id":6301,"lat":4.717,"lon":36.833,"site_type":"csn"},{"site_name":"Sebkhet Sedjoumi","id":6927,"lat":36.75,"lon":10.133,"site_type":"csn"},{"site_name":"Burdur lake","id":766,"lat":37.733,"lon":30.217,"site_type":"csn"},{"site_name":"Larne Lough","id":2503,"lat":54.807,"lon":-5.736,"site_type":"csn"},{"site_name":"IJzervallei-De Blankaart","id":699,"lat":51,"lon":2.833,"site_type":"csn"},{"site_name":"Danube valley: Regensburg-Vilshofen","id":3365,"lat":48.833,"lon":12.633,"site_type":"csn"},{"site_name":"Kalsoy","id":87,"lat":62.3,"lon":-6.75,"site_type":"csn"},{"site_name":"Moyowosi - Kigosi Game Reserves","id":6980,"lat":-4.667,"lon":31.5,"site_type":"csn"},